SAFETY_NO,SAFETY_CODE,SAFETY_NM,SAFETY_ADDR,SAFETY_EMD,SAFETY_LONG,SAFETY_LAT,SAFETY_X,SAFETY_Y,SAFETY_GEOM
SFT0000045,의원,우리성모내과의원,서울특별시 마포구 백범로 90 (대흥동),,126.941531533,37.5478420589,14131066.650771841,4515746.510880225,
SFT0000073,의원,별소아청소년과의원,"서울특별시 마포구 월드컵북로 347, 4층 401호 (상암동, 상암메디컬빌딩)",,126.8932160242,37.5763446029,14125688.192934807,4519749.180510042,
SFT0000186,의원,상암선내과의원,"서울특별시 마포구 월드컵북로 402, 3층 322호 (상암동, KGIT상암센터)",,126.88856109998564,37.579997697554795,14125170.009141581,4520262.302688726,
SFT0000669,의원,플러스후의원,"서울특별시 마포구 양화로 156, LG팰리스빌딩 501~503호 (동교동)",,126.923446601456,37.5561130617043,14129053.445401331,4516907.866760625,
SFT0000818,의원,365엠씨의원,"서울특별시 마포구 신촌로 92, 7,10층 (노고산동)",,126.93566460053301,37.555173127860506,14130413.546837097,4516775.8813880095,
SFT0000832,병원,연세한강병원,"서울특별시 마포구 마포대로 25, 대농빌딩 2,3,5층 (마포동)",,126.9448330432,37.5393778576,14131434.173206154,4514558.16083621,
SFT0000833,의원,제이필의원,"서울특별시 마포구 양화로 166, 미래프라자 5,7층 (동교동)",,126.9241680135153,37.55674485604517,14129133.752624424,4516996.58416499,
SFT0000834,의원,신촌연세퀸산부인과의원,"서울특별시 마포구 서강로 106, 5,6,7층 (신수동)",,126.9335066235,37.5523428041,14130173.321932638,4516378.45779369,
SFT0002265,의원,연세필정신건강의학과의원,"서울특별시 마포구 신촌로 174, 2층 (대흥동)",,126.9449969863,37.5564860972,14131452.423268564,4516960.248811734,
SFT0002787,의원,서울비뇨기과의원,"서울특별시 마포구 새창로 11, 6층 (도화동)",,126.95132578928957,37.54246933954342,14132156.942394694,4514992.180562034,
SFT0003649,의원,서울본내과의원,"서울특별시 마포구 양화로 133, 서교타워 3,5,18층 (서교동)",,126.92097484867006,37.55514617535736,14128778.291139832,4516772.096746018,
SFT0004266,의원,연세더블유의원,"서울특별시 마포구 양화로 48, 2,3,4층 (합정동)",,126.91436182351137,37.54942925701846,14128042.132546565,4515969.364053094,
SFT0004267,의원,우리미래의원,"서울특별시 마포구 마포대로24길 4, 공덕자이아파트 상가 304~305호 (아현동)",,126.95789571307446,37.554152411648005,14132888.30296498,4516632.554452505,
SFT0005427,의원,디샤인성형외과의원,"서울특별시 마포구 월드컵로 79, 유용빌딩 2층 (망원동)",,126.909837708961,37.5559403734127,14127538.510418529,4516883.617771187,
SFT0006040,의원,상암고려가정의학과의원,"서울특별시 마포구 월드컵북로 502, 204,205호 (상암동, 월드컵파크프라자)",,126.87987103266403,37.58504618403541,14124202.635272382,4520971.466291669,
SFT0006484,의원,가든내과의원,"서울특별시 마포구 마포대로 52 (도화동, 고려아카데미텔Ⅱ)",,126.94765334918227,37.54033464446809,14131748.128231982,4514692.484256858,
SFT0007382,의원,마포늘푸른의원,"서울특별시 마포구 대흥로24길 24, 마포프레스티지자이 상가A동 2층 208~209호 (염리동)",,126.947661522663,37.5539739756082,14131749.038099693,4516607.499021137,
SFT0007644,의원,성산의원,서울특별시 마포구 월드컵로 205 ,,126.9014993931,37.5650461203,14126610.293342805,4518162.328648229,
SFT0008411,의원,신촌바른내과의원,"서울특별시 마포구 신촌로 174, 3층 301,302호 (대흥동)",,126.94499698627166,37.55648609716972,14131452.423265409,4516960.2488074815,
SFT0009277,의원,삼성드림소아청소년과의원,"서울특별시 마포구 서강로 106, 3층 (신수동)",,126.9335066235,37.5523428041,14130173.321932638,4516378.45779369,
SFT0010389,의원,이안과의원,"서울특별시 마포구 서강로 144, 4층 4호 (노고산동)",,126.93665201406307,37.5544710755912,14130523.465208465,4516677.3003973,
SFT0010617,의원,인앤인내과의원,"서울특별시 마포구 도화길 43, 4층 405~408호 (도화동, 나눔빌딩)",,126.9502535448244,37.54178773701245,14132037.580686826,4514896.487386414,
SFT0010893,의원,유내과의원,"서울특별시 마포구 서강로 97, 410호 (창전동, 창전동삼성아파트상가동)",,126.93241271852298,37.551924273482555,14130051.548987621,4516319.690553301,
SFT0011114,의원,양대원내과의원,"서울특별시 마포구 도화길 32, 303호, 304호 (도화동, 삼성아파트상가동)",,126.9495933617,37.5408540213,14131964.089437585,4514765.40035301,
SFT0011312,의원,안영옥산부인과의원,"서울특별시 마포구 마포대로 52, 207호 (도화동, 고려아카데미텔2)",,126.94780261351546,37.5404644553814,14131764.744261544,4514710.708558998,
SFT0011352,의원,아현삼성정형외과의원,"서울특별시 마포구 마포대로 201, 2층 201~204호 (아현동, 마포트라팰리스2차)",,126.955495945044,37.552196546223,14132621.162009805,4516357.921213668,
SFT0012027,의원,상암우리내과의원,"서울특별시 마포구 월드컵북로 347, 402호 (상암동, 상암메디칼빌딩)",,126.8932160242,37.5763446029,14125688.192934807,4519749.180510042,
SFT0012080,의원,새서울의원,서울특별시 마포구 포은로 43 (합정동),,126.906866666666673,37.551266666666663,14127207.775503198,4516227.354515711,
SFT0012621,의원,연세우리내과의원,"서울특별시 마포구 백범로 10, 101,201호 (노고산동, 현대벤쳐빌)",,126.9335396178,37.5559684374,14130176.994841311,4516887.558528635,
SFT0013070,의원,우리동네내과의원,"서울특별시 마포구 토정로 222, 2층 (신수동, 한국출판협동조합)",,126.9352969427,37.5444979032,14130372.619354341,4515276.984707815,
SFT0013071,의원,이석제내과의원,"서울특별시 마포구 신촌로 266-1, 2층 (아현동)",,126.95527742713304,37.55710311691885,14132596.836707229,4517046.891969113,
SFT0013072,의원,이호영내과의원,"서울특별시 마포구 양화로 115, 3층 (서교동, 천지빌딩)",,126.9194763288,37.5541180451,14128611.476670954,4516627.728804511,
SFT0013073,의원,기쁨내과의원,"서울특별시 마포구 연희로 5, 1층 (동교동)",,126.9262706261,37.5592293356,14129367.814386688,4517345.4653944,
SFT0013138,의원,리즈산부인과의원,"서울특별시 마포구 양화로 152, 7층 (동교동)",,126.92289234399999,37.55582501260001,14128991.74574356,4516867.418770691,
SFT0013139,의원,하나산부인과의원,"서울특별시 마포구 대흥로 83, 1층 (대흥동, 신동빌딩)",,126.9413732815,37.5476185327,14131049.034295443,4515715.126696191,
SFT0013140,의원,김문수의원,"서울특별시 마포구 독막로 268, 305호 (대흥동, 태영아파트종합상가)",,126.94288782299421,37.54568787190927,14131217.632283363,4515444.056288987,
SFT0013141,의원,누리꿈서울아산내과의원,"서울특별시 마포구 월드컵북로 396, B1008,1009,1010호 (상암동, 누리꿈스퀘어)",,126.88989343212385,37.57933583905541,14125318.323676776,4520169.33463586,
SFT0013171,의원,서울가정의학과의원,"서울특별시 마포구 포은로 68, 2층 (망원동)",,126.9063178452,37.5532577964,14127146.68097699,4516506.935977297,
SFT0014507,병원,세솟는정형외과병원,"서울특별시 마포구 백범로 26, 세솟는병원 (신수동)",,126.93709629187569,37.552391622959554,14130572.921988336,4516385.312629464,
SFT0014511,의원,김성전·김시찬이비인후과의원,"서울특별시 마포구 신촌로 92, 신촌카리스빌딩 2,3층 (노고산동)",,126.9356815527,37.5551767458,14130415.433943694,4516776.389415348,
SFT0015293,한의원,경희피치한의원,서울특별시 마포구 월드컵북로 51 (서교동),,126.9172983193,37.5587512695,14128369.021762472,4517278.332407146,
SFT0015294,한의원,경희훈훈한의원,"서울특별시 마포구 월드컵북로 396, B1099~1101호 (상암동, 누리꿈스퀘어)",,126.8903224924,37.5794413686,14125366.086448237,4520184.157803709,
SFT0015295,한의원,경희희망한의원,"서울특별시 마포구 창전로 60, 4층 (구수동, 서강빌딩)",,126.9328950609,37.5477978227,14130105.243095418,4515740.299891484,
SFT0015296,한의원,계룡한의원,"서울특별시 마포구 만리재로 133, 4층 (아현동, 계룡빌딩)",,126.96213863784642,37.55165988599335,14133360.623190068,4516282.567219188,
SFT0015297,한의원,공덕경희한의원,"서울특별시 마포구 도화길 43, 308호 (도화동, 나눔빌딩)",,126.9502535448,37.541787737,14132037.58068411,4514896.487384664,
SFT0015298,한의원,공덕인과한의원,"서울특별시 마포구 백범로 152, 101동 1층 10,11호 (공덕동, 공덕파크자이)",,126.9484094228,37.5446845599,14131832.293962108,4515303.191128129,
SFT0015299,한의원,공덕한의원,"서울특별시 마포구 백범로 202, 211호 (신공덕동, 마포케이씨씨웰츠타워)",,126.9524706645,37.5428482257,14132284.38932014,4515045.374433444,
SFT0015300,한의원,광덕안정한의원신촌점,"서울특별시 마포구 서강로 144, 8층 (노고산동)",,126.93662826395412,37.554485291604195,14130520.821358431,4516679.296576559,
SFT0015301,한의원,괜찮아요한의원,"서울특별시 마포구 마포대로 63-8, 삼창프라자빌딩 2층 214~5,232~5,240호 (도화동)",,126.947815454166,37.5422597095372,14131766.173676224,4514962.749590781,
SFT0015302,한의원,구침가한의원,서울특별시 마포구 신촌로 260 (아현동),,126.95455309308043,37.55711725629244,14132516.204209328,4517048.8774569705,
SFT0015303,한의원,김나영한의원,"서울특별시 마포구 서강로 95, 207~209호 (창전동, 삼성프라자)",,126.93244709119891,37.55201919494314,14130055.375336403,4516333.018754272,
SFT0015304,한의원,김민석한의원,서울특별시 마포구 신촌로 180 (대흥동),,126.945485886,37.5565079478,14131506.847334215,4516963.317104946,
SFT0015305,한의원,김희재한의원,"서울특별시 마포구 독막로22길 3, 301호 (창전동)",,126.9295143828,37.547165154,14129728.907730788,4515651.47037334,
SFT0015306,한의원,누리꿈경희한의원,"서울특별시 마포구 월드컵북로54길 17, 303호 (상암동, 사보이시티DMC)",,126.88854908690001,37.581324585800004,14125168.671851007,4520448.686733331,
SFT0015307,한의원,누베베한의원,"서울특별시 마포구 양화로 125, 3층 (서교동, 경남관광빌딩)",,126.9203085976,37.554749308,14128704.124409974,4516716.369209853,
SFT0015308,한의원,늘봄한의원,"서울특별시 마포구 망원로 86, 2층 (망원동)",,126.9062763365,37.557485243,14127142.060249642,4517100.551246357,
SFT0015309,한의원,다현한의원,"서울특별시 마포구 독막로 174, 재성빌딩 2층 (구수동)",,126.932928458035,37.5471502037969,14130108.96084748,4515649.371307004,
SFT0015310,한의원,대유한의원,"서울특별시 마포구 백범로 178, 마포신영지웰 105, 106호 (공덕동)",,126.95007563042337,37.54388158473383,14132017.775346298,4515190.45465673,
SFT0015333,한의원,박성호한의원,"서울특별시 마포구 월드컵로 125, 205호 (망원동, 영보빌딩)",,126.90690002101778,37.55933074413656,14127211.488492576,4517359.705861287,
SFT0015334,한의원,발머스한의원,"서울특별시 마포구 양화로12길 24, 5층 (서교동, 선진빌딩)",,126.91853273201515,37.55180723947126,14128506.435957352,4516303.257487532,
SFT0015335,한의원,병인한의원,"서울특별시 마포구 백범로 199, 204호 (신공덕동, 메트로디오빌빌딩)",,126.952851667188,37.54346875041911,14132326.80234536,4515132.493830088,
SFT0015336,한의원,본디올은혜한의원,"서울특별시 마포구 도화길 32, 308호 (도화동, 삼성프라자)",,126.94959336167302,37.54085402134723,14131964.089434583,4514765.400359643,
SFT0015337,한의원,산동한의원,서울특별시 마포구 토정로 219 (신수동),,126.93531008238428,37.545006073923254,14130374.082057303,4515348.331540165,
SFT0015338,한의원,산들부부한의원,"서울특별시 마포구 굴레방로 17, 3층 (아현동, 청원빌딩)",,126.95554991612823,37.5556436039753,14132627.17004342,4516841.945367012,
SFT0015339,한의원,삼백초한의원,"서울특별시 마포구 숭문길 58, 염리삼성래미안 2층 204, 205호 (염리동)",,126.94578325048678,37.54909106967792,14131539.949797465,4515921.879903236,
SFT0015340,한의원,삼성한의원,"서울특별시 마포구 도화길 29, 3층 (도화동)",,126.94914527394613,37.540897071897,14131914.208536996,4514771.444313997,
SFT0015341,한의원,상암동청심연한의원,"서울특별시 마포구 월드컵북로 402, 2층 216,217호 (상암동, 케이지아이티센터)",,126.88904988257578,37.580185569335285,14125224.420170626,4520288.692276991,
SFT0015342,한의원,생기한의원,"서울특별시 마포구 마포대로 68, 5층 506호 (도화동, 마포아크로타워)",,126.9489593879,37.5413330809,14131893.515796997,4514832.656702537,
SFT0015343,한의원,생명마루한의원,"서울특별시 마포구 양화로 133, 403호404호 (서교동, 서교타워)",,126.9209825939,37.5552326957,14128779.153334886,4516784.245845893,
SFT0015344,한의원,생생당한의원,"서울특별시 마포구 성미산로 80, 2층 (성산동)",,126.91686635599642,37.5604484440449,14128320.935827477,4517516.662063245,
SFT0015345,한의원,서강약손한의원,"서울특별시 마포구 양화로 68, 3층 (서교동)",,126.9160940114,37.55075677,14128234.958820287,4516155.759349897,
SFT0015346,한의원,서림한의원,"서울특별시 마포구 독막로 168, 4층 (창전동, 한도빌딩)",,126.93223469562028,37.54724603436655,14130031.731568743,4515662.826296901,
SFT0015347,한의원,서상록한의원,"서울특별시 마포구 큰우물로 53, 301호 (염리동, 마포네이버타운)",,126.9446317476039,37.542289794676705,14131411.765082898,4514966.973384051,
SFT0015348,한의원,서울경희한의원,서울특별시 마포구 독막로 2 (합정동),,126.91363865002441,37.5484952960008,14127961.629242241,4515838.229139482,
SFT0015349,한의원,서울한의원,"서울특별시 마포구 만리재로 15, 206호 (공덕동, 제일빌딩)",,126.95276829588279,37.544585471886755,14132317.521494118,4515289.279258646,
SFT0015350,한의원,설명간편한의원,"서울특별시 마포구 양화로 105, 2층 (서교동)",,126.91857704379,37.5534135689843,14128511.368721562,4516528.8088635085,
SFT0015387,한방병원,메디람한방병원,"서울특별시 마포구 양화로 119, 디키즈코리아 B1~6층 (서교동)",,126.9197703152032,37.55435971256686,14128644.203087658,4516661.66307536,
SFT0015388,한방병원,한창한방병원,"서울특별시 마포구 와우산로 48, 로하스타워 2층 (상수동)",,126.923441090646,37.5485560282385,14129052.831940766,4515846.7563370215,
SFT0015389,한방병원,혜당한방병원,"서울특별시 마포구 독막로 32, 지1,1,2,4,5,7층 (합정동)",,126.9167805681,37.5480290329,14128311.38596253,4515772.763026877,
SFT0015390,한의원,가족사랑한의원,"서울특별시 마포구 월드컵로 112, 2층 (성산동, 효성빌딩)",,126.90819907196078,37.55853190536888,14127356.098182067,4517247.528088459,
SFT0015391,한의원,건강담은한의원,"서울특별시 마포구 신촌로 60, 2층 (동교동)",,126.93251591939,37.5563875413141,14130063.037255587,4516946.409461273,
SFT0015392,한의원,견우한의원,"서울특별시 마포구 만리재로 15, 208호 (공덕동, 제일빌딩)",,126.95266092594841,37.54445255494452,14132305.569127696,4515270.617866471,
SFT0015393,한의원,경희궁의봄한의원,"서울특별시 마포구 마포대로 68, 302, 303호 (도화동, 마포아크로타워)",,126.948961312534,37.5413315500222,14131893.730046272,4514832.441778168,
SFT0015394,한의원,경희더숲한의원,"서울특별시 마포구 광성로 20, 큐브빌딩 3층 301호 (신수동)",,126.935260882259,37.5498203534403,14130368.60512441,4516024.277320768,
SFT0015395,한의원,경희디엠씨한의원,"서울특별시 마포구 월드컵북로 344, 2층 (상암동)",,126.8938904997212,37.5765037859885,14125763.27520638,4519771.539212611,
SFT0015396,한의원,경희부부한의원,"서울특별시 마포구 망원로7길 13, 2층 (망원동)",,126.9053701401804,37.55812242131825,14127041.182936784,4517190.02632689,
SFT0015397,한의원,경희빛과소금한의원,"서울특별시 마포구 독막로 257, 2층 (대흥동)",,126.9421890098,37.5463683486,14131139.840754423,4515539.5964003075,
SFT0015398,한의원,경희샘한의원,"서울특별시 마포구 월드컵북로 185, 2층 (성산동)",,126.9079475767,37.5679092822,14127328.1018577,4518564.431893022,
SFT0015399,한의원,경희손한의원,"서울특별시 마포구 월드컵로13길 70, 2층 (망원동)",,126.90633794434224,37.555283254709096,14127148.91840327,4516791.345297852,
SFT0015400,한의원,경희에스한의원,"서울특별시 마포구 월드컵북로 434, 상암 IT Tower 208호 (상암동)",,126.88604890346927,37.58162132852163,14124890.352704607,4520490.369755202,
SFT0015401,한의원,경희웃음한의원,"서울특별시 마포구 월드컵북로44길 45, 3층 (상암동)",,126.89487747023118,37.576630808168915,14125873.144260978,4519789.380659444,
SFT0015402,한의원,경희은한의원,"서울특별시 마포구 동교로27길 94, 1층 (연남동)",,126.91991642222264,37.56165428367157,14128660.467646664,4517685.998177314,
SFT0015403,한의원,경희자연한의원,"서울특별시 마포구 월드컵북로 375, 301호 (상암동, DMC이안상암1단지)",,126.89073865496533,37.5773436533864,14125412.413453095,4519889.506965954,
SFT0015404,한의원,경희평강한의원,"서울특별시 마포구 마포대로11길 46, 4층 (공덕동)",,126.951728674,37.5493999894,14132201.791315507,4515965.254641848,
SFT0015455,한의원,더편한한의원,"서울특별시 마포구 마포대로 195, 4-218호 (아현동, 마포래미안푸르지오4단지상가)",,126.95371933692451,37.552680840777555,14132423.390898606,4516425.922860026,
SFT0015456,한의원,동강한의원,"서울특별시 마포구 동교로 201, 3층 (동교동)",,126.9229317347378,37.55824329531439,14128996.130700435,4517207.000014229,
SFT0015457,한의원,동교한의원,"서울특별시 마포구 연희로 7 (동교동, 동교동빌딩)",,126.92633380406826,37.5594348023664,14129374.847325945,4517374.318436018,
SFT0015458,한의원,동의보감한의원,"서울특별시 마포구 월드컵북로 224, 2층 206호 (성산동, 청화상가)",,126.9046988132,37.5698023984,14126966.451159172,4518830.310141382,
SFT0015459,한의원,동제한의원,"서울특별시 마포구 굴레방로 27, 301호 (아현동)",,126.95532307186045,37.556476040030496,14132601.917855041,4516958.836569585,
SFT0015460,한의원,동희수한의원,"서울특별시 마포구 월드컵로13길 8, 2층,4층 (망원동)",,126.90967361784229,37.5558372640115,14127520.243878748,4516869.139116436,
SFT0015461,한의원,로담한의원,"서울특별시 마포구 양화로 165, 6층 (동교동, 상진빌딩)",,126.9236197709,37.5572094172,14129072.722535657,4517061.818942126,
SFT0015462,한의원,리밸런스한의원,"서울특별시 마포구 백범로31길 8, 2동 212 213호 (공덕동, 공덕SK리더스뷰)",,126.949355551939,37.5449853625619,14131937.616576085,4515345.423669264,
SFT0015463,한의원,리유한의원,"서울특별시 마포구 신촌로 116, 5층 (노고산동, 마포빌딩)",,126.9385741421501,37.5553116337472,14130737.435528353,4516795.330259739,
SFT0015464,한의원,마디마디돌봄한의원,"서울특별시 마포구 월드컵로13길 19, 2층 (망원동)",,126.90914437135352,37.55550168694395,14127461.328429114,4516822.017417102,
SFT0015465,한의원,마포모커리한의원,"서울특별시 마포구 마포대로 130, 3층 (공덕동, 동방빌딩)",,126.95298921209809,37.545973098690716,14132342.113774711,4515484.1025191955,
SFT0015466,한의원,마포벌한의원,"서울특별시 마포구 망원로 76, 1,2층 (망원동)",,126.90533494690361,37.557297084546114,14127037.265239134,4517074.129444021,
SFT0015467,한의원,마포척편한한의원,"서울특별시 마포구 마포대로 68, 402~403호 (도화동, 마포아크로타워)",,126.94895938790589,37.54133308089632,14131893.51579765,4514832.65670202,
SFT0015468,한의원,망원동한의원,서울특별시 마포구 망원로8길 70 (망원동),,126.90580917035739,37.55458726407211,14127090.055552533,4516693.615322891,
SFT0015469,한의원,명인한의원,"서울특별시 마포구 만리재로 15, 2층 (공덕동, 제일빌딩)",,126.95266421899031,37.544574613050976,14132305.935707442,4515287.754688824,
SFT0015470,한의원,몸이편안한의원,"서울특별시 마포구 월드컵로 204, 이안상암 110, 206, 208호 (성산동)",,126.9021327822689,37.565399837361426,14126680.801902562,4518212.003932895,
SFT0015471,한의원,미소짓는한의원,"서울특별시 마포구 월드컵북로 192, 5~6층 (성산동)",,126.9077069692,37.5684280677,14127301.317553319,4518637.29192533,
SFT0015472,한의원,바로경희한의원,"서울특별시 마포구 백범로 91, 2층 (대흥동)",,126.941804075317,37.5482161980568,14131096.990043787,4515799.0420789225,
SFT0016344,한의원,시원한의원,"서울특별시 마포구 월드컵로13길 83, 동명빌딩 1층 (망원동)",,126.905603997569,37.5549397506098,14127067.215822205,4516743.110846646,
SFT0016345,한의원,신석한의원,"서울특별시 마포구 독막로 248-1, 2층 (대흥동)",,126.9410800602,37.5463497805,14131016.393049637,4515536.98939519,
SFT0016346,한의원,신선한의원,"서울특별시 마포구 월드컵로14길 22, 201호 (서교동, 서교스위트하우스)",,126.91170283279023,37.55595398177318,14127746.135053463,4516885.5286629675,
SFT0016347,한의원,아름건강한의원,"서울특별시 마포구 양화로 78-7, 2층 (서교동)",,126.917427073133,37.5515078807033,14128383.3545736,4516261.223821197,
SFT0016348,한의원,아이누리한의원,"서울특별시 마포구 마포대로 143, 209호 (공덕동, 마포공덕파크팰리스Ⅱ)",,126.95309239022113,37.547454381919046,14132353.59951083,4515692.079174588,
SFT0016349,한의원,아이랑한의원,"서울특별시 마포구 마포대로 173-14, 마포 센텀 슬로우스퀘어 3층 303호 (아현동)",,126.953625787034,37.55099812968,14132412.97697243,4516189.648873618,
SFT0016350,한의원,아현한의원,"서울특별시 마포구 마포대로 214, 샵빌딩 4층 403호 (아현동)",,126.957185737,37.5528583234,14132809.268789893,4516450.84398292,
SFT0016351,한의원,안중한의원,서울특별시 마포구 마포대로4나길 13 (도화동),,126.9463137662,37.538355004,14131599.006536521,4514414.564205566,
SFT0016352,한의원,약선제한의원,서울특별시 마포구 월드컵북로7길 26 (서교동),,126.91662131281102,37.55797223380231,14128293.657744855,4517168.936337457,
SFT0016353,한의원,엘리자베스경희한의원,"서울특별시 마포구 신촌로 170, 상가308,309호 (대흥동, 이대역 푸르지오시티)",,126.94436884696344,37.55633831038601,14131382.499117473,4516939.496394783,
SFT0016354,한의원,연한의원,"서울특별시 마포구 백범로 90, 3층 (대흥동)",,126.94153153298055,37.54784205888305,14131066.650769675,4515746.510877846,
SFT0016355,한의원,예당한의원,"서울특별시 마포구 도화길 10, 2층 (도화동, 에벤에셀빌딩)",,126.9474125396,37.5398079105,14131721.321431903,4514618.535800035,
SFT0016356,한의원,예선한의원,"서울특별시 마포구 성미산로 21-1, 제일빌딩 2층 (성산동)",,126.91060726139744,37.55871395725013,14127624.176603891,4517273.092809247,
SFT0016357,한의원,예승한의원,"서울특별시 마포구 큰우물로 49, 엘지상가 2층 203 204호 (염리동)",,126.944154921165,37.5425902336753,14131358.685006522,4515009.153512,
SFT0016358,한의원,예일한의원,"서울특별시 마포구 도화길 32, 삼성아파트 상가동 4층 401,402호 (도화동)",,126.9495933617,37.5408540213,14131964.089437585,4514765.40035301,
SFT0016359,한의원,오늘도한의원,"서울특별시 마포구 망원로 96-1, 2층 (망원동, 영진빌딩)",,126.9075481264,37.5577385248,14127283.635253707,4517136.117979283,
SFT0016360,한의원,오중한한의원,서울특별시 마포구 망원로 75 (망원동),,126.90523503253652,37.55754928356222,14127026.142822668,4517109.544038895,
SFT0016396,한의원,성심한의원,서울특별시 마포구 숭문길 182 (염리동),,126.94665526664762,37.554522683400386,14131637.022192454,4516684.547046842,
SFT0016397,한의원,성제한의원,"서울특별시 마포구 월드컵북로 324, 2층 (상암동)",,126.89578031226462,37.57540625274544,14125973.648176407,4519617.381726671,
SFT0016398,한의원,세신한의원,"서울특별시 마포구 신촌로 160, 306,307호 (대흥동, 이대역스타힐스)",,126.94328591599415,37.55630869218955,14131261.947793406,4516935.337374002,
SFT0016399,한의원,소담한의원,서울특별시 마포구 월드컵북로 236 효봉빌딩 4층 (중동),,126.90343038803283,37.57029871696297,14126825.250715453,4518900.016600413,
SFT0016400,한의원,소망한의원,"서울특별시 마포구 마포대로7길 11, 3층 (공덕동)",,126.95206078212948,37.546794436459166,14132238.76142337,4515599.4203210985,
SFT0016401,한의원,숭실한의원,"서울특별시 마포구 서강로 131, 1층,2층,3층,4층 (노고산동, 신촌아이스페이스오피스텔)",,126.9350349140546,37.554358286008664,14130343.45045896,4516661.462761721,
SFT0016411,한의원,온누리한의원,"서울특별시 마포구 신촌로 270, 405호 (아현동, 수창빌딩)",,126.95571201169999,37.55712130069999,14132645.214439929,4517049.445383336,
SFT0016412,한의원,온맘한의원,"서울특별시 마포구 독막로 92, 3층 (상수동, 공감빌딩)",,126.92357081279697,37.54752185602204,14129067.272544557,4515701.552841598,
SFT0016413,한의원,올바로경희한의원,"서울특별시 마포구 월드컵로1길 14, 1층 113호 (합정동, 마포 한강 푸르지오)",,126.912061257921,37.5500497954747,14127786.034756508,4516056.493070123,
SFT0016414,한의원,용하다한의원,"서울특별시 마포구 월드컵로13길 64, 2층 (망원동)",,126.9065778125,37.5553302966,14127175.620404452,4516797.950883465,
SFT0016415,한의원,우리(들)한의원,"서울특별시 마포구 마포대로 115-12, 2층 (공덕동, 삼성아파트상가)",,126.9511516935,37.5456912411,14132137.562140048,4515444.529327081,
SFT0016416,한의원,원광좋은한의원,"서울특별시 마포구 마포대로8길 9, 302호 (공덕동, 영명빌딩)",,126.9539393485282,37.546622192391794,14132447.882478297,4515575.236733684,
SFT0016417,한의원,으랏차차한의원,"서울특별시 마포구 월드컵로 30, 2층 (서교동)",,126.91263860339998,37.55210576099999,14127850.30456124,4516345.1737632705,
SFT0016418,한의원,이오한의원,"서울특별시 마포구 창전로 38, 2층 (구수동)",,126.93219530915393,37.54575395766081,14130027.347087363,4515453.334805251,
SFT0016419,한의원,이유명호한의원,"서울특별시 마포구 마포대로 52, 208호 (도화동, 고려아카데미텔)",,126.9476610986,37.5403378088,14131748.990893215,4514692.928500644,
SFT0016420,한의원,이주호한의원,"서울특별시 마포구 신촌로16길 8, 4층 (노고산동)",,126.93482127563668,37.5553636815732,14130319.668339064,4516802.638777881,
SFT0016421,한의원,이지한의원,"서울특별시 마포구 월드컵로13길 13, 3층 (망원동)",,126.9056050154,37.554940292,14127067.329126634,4516743.186867862,
SFT0016422,한의원,이화한의원,"서울특별시 마포구 대흥로 183, 신촌그랑자이 상가 209,210호 (대흥동)",,126.945660437538,37.5558352535218,14131526.278322544,4516868.856803037,
SFT0016423,한의원,일맥한의원,"서울특별시 마포구 신촌로 74-1, 2층 (노고산동)",,126.93414180217151,37.55585705114475,14130244.029698914,4516871.917630398,
SFT0016424,한의원,자연한의원,"서울특별시 마포구 양화로 152, 8층 (동교동)",,126.92289234399374,37.55582501259434,14128991.745742863,4516867.418769895,
SFT0016425,한의원,장한의원,"서울특별시 마포구 성미산로 195, 2층 (연남동)",,126.9268466811,37.5627291648,14129431.940535957,4517836.946093887,
SFT0016426,한의원,전인한의원,"서울특별시 마포구 잔다리로3안길 24, LIME HOUSE 201호 (서교동)",,126.91959372856,37.5504982759395,14128624.545552457,4516119.464094539,
SFT0016427,한의원,전찬일한의원,"서울특별시 마포구 독막로 147-6, 2층 (창전동)",,126.93021083147829,37.54783230669441,14129806.436043022,4515745.141620362,
SFT0016428,한의원,정원한의원,"서울특별시 마포구 대흥로 193, 2층 (대흥동)",,126.94569875420407,37.556371094333684,14131530.5437143,4516944.099955873,
SFT0016473,한의원,정진한의원,"서울특별시 마포구 성미산로1길 58, 1층 (성산동)",,126.90708881412141,37.56039766663955,14127232.50484474,4517509.531450018,
SFT0016474,한의원,제생한의원,"서울특별시 마포구 양화로12길 8-9, 예현빌딩 4층 (서교동)",,126.9180984557913,37.55154384763094,14128458.092549248,4516266.274012891,
SFT0016475,한의원,제일한의원,"서울특별시 마포구 삼개로 23, 2층 (도화동)",,126.94762639280786,37.53818980940249,14131745.127462108,4514391.373009263,
SFT0016476,한의원,조형준한방소아과한의원,"서울특별시 마포구 마포대로 68, 405호 (도화동, 마포아크로타워)",,126.94895938790589,37.54133308089632,14131893.51579765,4514832.65670202,
SFT0016477,한의원,좋은꿈참사랑한의원,"서울특별시 마포구 월드컵북로 230, 203호 (중동, 현대상가)",,126.90383356849009,37.570140470944516,14126870.132558653,4518877.791369565,
SFT0016478,한의원,지산한의원,"서울특별시 마포구 양화로 99, 2층 (서교동)",,126.91820998569241,37.55306120051557,14128470.508001046,4516479.330932017,
SFT0016479,한의원,지장한의원,서울특별시 마포구 굴레방로 21-1 (아현동),,126.95545013801832,37.55598954471352,14132616.062795034,4516890.522427866,
SFT0016480,한의원,참경희한의원,"서울특별시 마포구 월드컵로 155, 2층 (망원동, 가은빌딩)",,126.90493137947816,37.56138007746137,14126992.340318833,4517647.491145892,
SFT0016481,한의원,참좋은한의원,"서울특별시 마포구 월드컵로13길 62, 2층 (망원동)",,126.90671812911843,37.55534482350188,14127191.240378963,4516799.990740536,
SFT0016482,한의원,채움한의원,"서울특별시 마포구 서강로 142, 2층 (노고산동)",,126.93635673430352,37.55438783781137,14130490.59481599,4516665.612350803,
SFT0016483,한의원,척봄한의원,"서울특별시 마포구 마포대로 78, 자람빌딩 2층 (도화동)",,126.94977371466484,37.541881237862604,14131984.166237796,4514909.614330019,
SFT0016484,한의원,청구경희한의원,"서울특별시 마포구 독막로 37, 3층 (합정동)",,126.91769607085689,37.54823870095925,14128413.299263248,4515802.201618796,
SFT0016485,한의원,청심당한의원,"서울특별시 마포구 월드컵로 75, 4층 (망원동)",,126.91010398902283,37.55559612041297,14127568.15257942,4516835.277734227,
SFT0016486,한의원,청암한의원,"서울특별시 마포구 월드컵북로 502, 307,308호 (상암동, 월드컵파크프라자)",,126.8798710327,37.585046184,14124202.635276385,4520971.466286697,
SFT0016487,한의원,청이한의원,"서울특별시 마포구 큰우물로 51, 2층 (염리동)",,126.9444246781968,37.54249190544383,14131388.71422194,4514995.348702952,
SFT0016488,한의원,케어빌한의원,"서울특별시 마포구 독막로 14, 2층 (합정동)",,126.9149346947163,37.548442134547734,14128105.904277388,4515830.764934595,
SFT0016489,한의원,코비한의원,"서울특별시 마포구 월드컵로3길 14, 308호 (합정동,  딜라이트스퀘어2차)",,126.91237009537444,37.55063864421909,14127820.414384564,4516139.1732457075,
SFT0016490,한의원,태평한의원,"서울특별시 마포구 토정로 222, 2층 205호 (신수동, 한국출판협동조합)",,126.9352969427,37.5444979032,14130372.619354341,4515276.984707815,
SFT0016491,한의원,파동한의원,"서울특별시 마포구 삼개로 15-10, 3층 (도화동)",,126.94794257615888,37.53909455332676,14131780.324831739,4514518.3880468,
SFT0016542,한의원,팔플러스원중앙한의원,"서울특별시 마포구 성암로 189, 중소기업 DMC 타워 지하1층 B108-1호 (상암동)",,126.89789858693162,37.576755503773335,14126209.453433698,4519806.895346631,
SFT0016543,한의원,필한의원,"서울특별시 마포구 망원로 71, 2층 (망원동)",,126.9047733371,37.5574984563,14126974.747121774,4517102.406702041,
SFT0016544,한의원,하늘체한의원,"서울특별시 마포구 서강로 136, 101호 (노고산동, 아이비타워)",,126.9357911696,37.554045152499995,14130427.636441182,4516617.493450773,
SFT0016545,한의원,함소아한의원,"서울특별시 마포구 마포대로 109, B112호 (공덕동, 롯데캐슬프레지던트)",,126.95088501519565,37.54511809510328,14132107.875647005,4515364.059304927,
SFT0016546,한의원,해미소한의원,"서울특별시 마포구 독막로22길 9, 1층 (창전동)",,126.92931527097082,37.547110975045925,14129706.742703354,4515643.863440658,
SFT0016547,한의원,해율한의원,"서울특별시 마포구 양화로 166, 미래프라자 4층 (동교동)",,126.92204653208539,37.55512528320082,14128897.590391919,4516769.163092433,
SFT0016548,한의원,혜당한의원,"서울특별시 마포구 독막로 32, 2층 (합정동)",,126.91678056813498,37.54802903291802,14128311.385966424,4515772.763029412,
SFT0016549,한의원,혜화한의원,"서울특별시 마포구 신촌로 88, 7층 (노고산동, 태영빌딩)",,126.93533286503312,37.55530990302297,14130376.61821017,4516795.0872327825,
SFT0016550,한의원,호감한의원,"서울특별시 마포구 백범로 95, 다나빌딩 2층 (대흥동)",,126.9423100001,37.5479541656,14131153.30933301,4515762.251250818,
SFT0016551,한의원,홍익한의원,"서울특별시 마포구 연남로 1, 지하1,지상2층 (동교동)",,126.9235218005754,37.56004929618581,14129061.816529011,4517460.610314822,
SFT0016552,한의원,화접몽한의원,"서울특별시 마포구 백범로 21, 7층 (노고산동, 에버빌딩)",,126.93754405184448,37.55285677558637,14130622.766400062,4516450.626647281,
SFT0016553,한의원,화한의원,"서울특별시 마포구 연남로 43, 2층 (연남동, 로얄빌딩)",,126.92090621811973,37.563247912446485,14128770.651221918,4517909.79574385,
SFT0016554,한의원,휴한의원,"서울특별시 마포구 백범로 205, 101동 B231호 (신공덕동, 펜트라우스)",,126.95385617219382,37.54394848788474,14132438.623331107,4515199.847709268,
SFT0016555,기타,서울특별시시립서부노인전문요양센터,서울특별시 마포구 월드컵로36길 15 (성산동) ,,126.90250265408207,37.566463318317,14126721.975844465,4518361.358395811,
SFT0017541,의원,강가정의학과의원,"서울특별시 마포구 방울내로 70, 2층 (망원동)",,126.9033348908,37.5601065741,14126814.620012123,4517468.65374985,
SFT0017542,의원,박병권내과의원,"서울특별시 마포구 월드컵북로 230, 3층 3호 (중동, 현대상가)",,126.9038335685,37.5701404709,14126870.132559758,4518877.791363312,
SFT0017543,의원,최이비인후과의원,"서울특별시 마포구 월드컵북로 230 (중동, 현대상가)",,126.9038335685,37.5701404709,14126870.132559758,4518877.791363312,
SFT0017544,의원,연세석가정의학과의원,"서울특별시 마포구 연남로 44, A-103호 (연남동, 코오롱아파트)",,126.9212274018,37.5634968021,14128806.405225655,4517944.74841819,
SFT0017545,의원,애플산부인과의원,"서울특별시 마포구 양화로18길 3, 5층 (동교동, 삼양세븐스프링스)",,126.9245706303,37.5570298291,14129178.571719883,4517036.600707757,
SFT0017612,의원,최지원소아청소년과의원,"서울특별시 마포구 월드컵북로38길 14, 3층 (중동)",,126.9037741227,37.570594524,14126863.515083572,4518941.5620357385,
SFT0017803,의원,양회섭내과의원,"서울특별시 마포구 동교로 191, D.B.M빌딩 6층 (동교동)",,126.92172056106833,37.55629274101884,14128861.303464286,4516933.097493181,
SFT0017853,병원,위비앙병원,서울특별시 마포구 신촌로 240 (아현동),,126.952447901677,37.556950103098,14132281.855374275,4517025.405391891,
SFT0017854,요양병원,마포요양병원,"서울특별시 마포구 성산로4길 33, 마포요양병원 지하1~5층 (성산동)",,126.908724880466,37.5640950697612,14127414.630917123,4518028.766268391,
SFT0017855,요양병원,푸르메재단넥슨어린이재활병원,"서울특별시 마포구 월드컵북로 494, 지하1층~7층 (상암동, 푸르메재단넥슨어린이재활병원)",,126.88051927846645,37.584646801238776,14124274.797665017,4520915.363024289,
SFT0017856,의원,가든비뇨기과의원,"서울특별시 마포구 마포대로 52, 2층 207호 (도화동, 고려아카데미텔2)",,126.947662908645,37.5403382601404,14131749.192386502,4514692.991864787,
SFT0017857,의원,가든이비인후과의원,"서울특별시 마포구 마포대로 52, 201호 (도화동, 고려아카데미텔Ⅱ)",,126.94756284772184,37.54030937536326,14131738.053655488,4514688.936702104,
SFT0017883,의원,건강한내과의원,"서울특별시 마포구 큰우물로 53, 마포 네이버타운 2층 201(일부),202호 (염리동)",,126.9446317476039,37.542289794676705,14131411.765082898,4514966.973384051,
SFT0017884,의원,고려가정의학과의원,"서울특별시 마포구 독막로 10, 3층 (합정동)",,126.91459517607868,37.54847071683545,14128068.109235533,4515834.77806825,
SFT0017885,의원,공덕M(엠)재활의학과의원,"서울특별시 마포구 새창로 11, 4층 (도화동, EG빌딩)",,126.9513257893,37.5424693395,14132156.942395855,4514992.180555941,
SFT0017886,의원,공덕아산내과의원,"서울특별시 마포구 마포대로 204, 마포에스케이허브블루 203,204호 (아현동)",,126.95653436682082,37.55202195922599,14132736.75859323,4516333.406895597,
SFT0017887,의원,공안과의원,"서울특별시 마포구 월드컵북로 230, 202호 (중동, 현대상가)",,126.90392957871549,37.57023749582365,14126880.820368057,4518891.418249226,
SFT0017888,의원,국원석성형외과의원,"서울특별시 마포구 양화로 152, 5층 (동교동, 대화빌딩)",,126.9228980588274,37.55582501609476,14128992.381915238,4516867.419261424,
SFT0017889,의원,굿본정형외과재활의학과의원공덕점,"서울특별시 마포구 마포대로 143, 마포공덕파크팰리스 Ⅱ 1,2층 107,216,217,218호 (공덕동)",,126.953094314075,37.5474542024771,14132353.813673263,4515692.0539801475,
SFT0017890,의원,굿본재활의학과의원홍대점,"서울특별시 마포구 양화로 156, LG팰리스빌딩 2층 204~207호 (동교동)",,126.92344886429527,37.55611369387584,14129053.697299445,4516907.955530619,
SFT0017891,의원,권내과의원,"서울특별시 마포구 대흥로30길 6, 3층 (대흥동)",,126.94632358198301,37.55622722045359,14131600.099224485,4516923.897028845,
SFT0017892,의원,권이비인후과의원,"서울특별시 마포구 신촌로 266-1, 5층 (아현동)",,126.95527830630044,37.55713595781584,14132596.934575696,4517051.503574428,
SFT0017893,의원,그루정신건강의학과의원,"서울특별시 마포구 양화로 165, 상진빌딩 6층 (동교동)",,126.92361977089999,37.55720941719999,14129072.722535657,4517061.818942123,
SFT0017894,의원,길맨비뇨기과의원,"서울특별시 마포구 마포대로 109, 3층 (공덕동, 롯데캐슬프레지던트)",,126.9508850152,37.5451180951,14132107.875647489,4515364.0593044665,
SFT0017895,의원,김동섭내과의원,"서울특별시 마포구 마포대로20길 26, 상가동 201,202호 (공덕동, 삼성래미안공덕2차아파트)",,126.96173252806234,37.55134305420937,14133315.415255697,4516238.080218884,
SFT0017896,의원,김유정산부인과의원,"서울특별시 마포구 월드컵로14길 5, 5층 (서교동)",,126.93345861873834,37.55664246639711,14130167.978067014,4516982.206422915,
SFT0017897,의원,김의원,"서울특별시 마포구 양화로 133, 서교타워 4층 (서교동)",,126.9220465321,37.5551252832,14128897.590393545,4516769.163092315,
SFT0017898,의원,김이비인후과의원,"서울특별시 마포구 만리재로 15, 303호 (공덕동, 제일빌딩)",,126.9527682959,37.5445854719,14132317.521496033,4515289.279260508,
SFT0017899,의원,김재학내과의원,"서울특별시 마포구 큰우물로 53, 402호 (염리동)",,126.94464080716554,37.54230781364511,14131412.773588683,4514969.503152015,
SFT0017900,의원,김진의원,서울특별시 마포구 망원로 78 (망원동),,126.9055295823,37.5573188644,14127058.931952352,4517077.18783624,
SFT0017906,의원,마인드피부과의원,"서울특별시 마포구 양화로18길 3, 3층 (동교동, 삼양세븐스프링스)",,126.9245706303,37.5570298291,14129178.571719883,4517036.600707757,
SFT0017907,의원,마포공덕에스앤유피부과의원,"서울특별시 마포구 백범로 178, 마포신영지웰 2층 B204(일부),205,206,207호 (공덕동)",,126.9500756304,37.5438815847,14132017.775343696,4515190.454651979,
SFT0017908,의원,마포공덕튼튼본정형외과의원,"서울특별시 마포구 마포대로 92, 3, 5층 303, 503호 (도화동, 효성해링턴스퀘어)",,126.951334598,37.542844159,14132157.922975853,4515044.803486059,
SFT0017909,의원,마포리더스내과의원,"서울특별시 마포구 월드컵로 74, 원천빌딩 5층 (서교동)",,126.910728577563,37.555782204515,14127637.681457665,4516861.407652718,
SFT0017910,의원,마포마취통증의학과의원,"서울특별시 마포구 만리재로 15, 408호 (공덕동, 제일빌딩)",,126.95281020482687,37.54458596341651,14132322.186776431,4515289.348268945,
SFT0017911,의원,마포바로본정형외과의원,"서울특별시 마포구 마포대로 89, 서울마포우체국 3층 (도화동)",,126.94979543415013,37.543239954384994,14131986.584039839,4515100.371620931,
SFT0017912,의원,마포성모정신건강의학과의원,"서울특별시 마포구 마포대로 173-14, 마포 센텀 슬로우스퀘어 지상3층 301호 (아현동)",,126.953625787034,37.55099812968,14132412.97697243,4516189.648873618,
SFT0017913,의원,마포안과의원,"서울특별시 마포구 만리재로 15, 307호 (공덕동, 제일빌딩)",,126.9527682959,37.54458547189999,14132317.521496033,4515289.279260503,
SFT0017939,의원,꿈나무소아청소년과의원,"서울특별시 마포구 마포대로 143, 226호 (공덕동, 마포공덕파크팰리스2)",,126.9530923902,37.5474543819,14132353.599508477,4515692.0791719165,
SFT0017940,의원,나디연세외과의원,"서울특별시 마포구 월드컵북로 167, 3층 (성산동)",,126.9097959491,37.5670169214,14127533.861732066,4518439.106838944,
SFT0017941,의원,나라온의원,"서울특별시 마포구 백범로 90, 2층 (대흥동)",,126.941531533,37.5478420589,14131066.650771841,4515746.510880225,
SFT0017942,의원,나은미래신경외과의원,"서울특별시 마포구 월드컵로 73, 3층 (망원동)",,126.91035768411635,37.5554233265758,14127596.393788045,4516811.014092355,
SFT0017943,의원,나의미래피부과의원,"서울특별시 마포구 월드컵북로 381, 2층 208~210호 (상암동, 상암월드컵파크4단지상가)",,126.88988995994347,37.577952524435574,14125317.937155424,4519975.029810006,
SFT0017944,의원,남산의원,"서울특별시 마포구 대흥로 169-0, 201호 (대흥동, 베스텔)",,126.9456830013181,37.55454416658864,14131528.790111054,4516687.563668067,
SFT0017945,의원,노벨의원,"서울특별시 마포구 신촌로 92, 4,11층 (노고산동, 신촌카리스빌딩)",,126.9356815527,37.5551767458,14130415.433943694,4516776.389415348,
SFT0017946,의원,노정신건강의학과의원,"서울특별시 마포구 신촌로 266-1, 3층 (아현동)",,126.95527742713304,37.55710311691885,14132596.836707229,4517046.891969113,
SFT0017947,의원,누가의원,서울특별시 마포구 신촌로 84 (노고산동),,126.93497611077655,37.55556574719246,14130336.90450799,4516831.0127346115,
SFT0017948,의원,누리꿈마취통증의학과의원,"서울특별시 마포구 월드컵북로 396, 지하1층 1012, 1013호 (상암동, 누리꿈스퀘어)",,126.89030573036123,37.579188466443256,14125364.220506616,4520148.6340324,
SFT0017949,의원,뉴센스의원,"서울특별시 마포구 신촌로 170, 상가306,307호 (대흥동, 이대역푸르지오시티)",,126.94460417432705,37.55643573097737,14131408.695639757,4516953.176316514,
SFT0017950,의원,다나이비인후과의원,"서울특별시 마포구 큰우물로 53, 302호 (염리동)",,126.9446317476039,37.54228979467671,14131411.765082898,4514966.973384054,
SFT0017951,의원,다미의원,"서울특별시 마포구 마포대로 173-14, 마포 센텀 슬로우스퀘어 2층 205~207호 (아현동)",,126.9536243164,37.5509973182,14132412.813262202,4516189.534932818,
SFT0017952,의원,다사랑의원,"서울특별시 마포구 월드컵로 80, 3층 (서교동, 아침뜨락빌딩)",,126.91044729110177,37.556201856243156,14127606.368792035,4516920.335362821,
SFT0017953,의원,닥터쁘띠의원,"서울특별시 마포구 양화로 151, 3(일부)층 (동교동)",,126.922368229397,37.5562674192411,14128933.401572837,4516929.541782469,
SFT0017954,의원,닥터스피부과의원,"서울특별시 마포구 마포대로 127, 2층 201호 (공덕동, 풍림브이아이피텔)",,126.95214264,37.5461962064,14132247.873799833,4515515.42725352,
SFT0017955,의원,닥터윤이비인후과의원,"서울특별시 마포구 동교로 207, 3층 (동교동)",,126.92321996796184,37.558596693377844,14129028.216676164,4517256.625967837,
SFT0017956,의원,닥터척척의원,"서울특별시 마포구 월드컵북로 402, 케이지아이티센터 2층 211,213호 (상암동)",,126.8889811024,37.5801068499,14125216.76359648,4520277.634868566,
SFT0018007,의원,닥터포유의원,"서울특별시 마포구 양화로 64, 4층 (서교동, 서교제일빌딩)",,126.9158378352374,37.55032406249755,14128206.441420311,4516095.002785848,
SFT0018008,의원,더건강내과의원,"서울특별시 마포구 월드컵로13길 34, 3층 (망원동, 두드림빌딩)",,126.9082614297,37.5556559758,14127363.039813844,4516843.68261698,
SFT0018009,의원,도우정신건강의학과의원,"서울특별시 마포구 월드컵북로 396, 누리꿈스퀘어 지하1층 1017호 (상암동)",,126.890322604776,37.5794419093126,14125366.098957876,4520184.233754752,
SFT0018010,의원,동교정신건강의학과의원,서울특별시 마포구 신촌로 62 (동교동),,126.9326791415,37.5563607848,14130081.207057757,4516942.652278622,
SFT0018011,의원,드림온의원,"서울특별시 마포구 서강로 144 , 8층 (노고산동)",,126.936628263039,37.5544863727946,14130520.821256557,4516679.448394799,
SFT0018012,의원,드림이비인후과의원,"서울특별시 마포구 월드컵로 79, 3층 (망원동, 유용빌딩)",,126.90983646220093,37.55594190416232,14127538.37162983,4516883.832719685,
SFT0018013,의원,드림페이스의원,"서울특별시 마포구 양화로 178, 6, 7층 (동교동)",,126.92515979242322,37.5575167574757,14129244.156947434,4517104.976614753,
SFT0018014,의원,디샤인의원,"서울특별시 마포구 월드컵로 79, 유용빌딩 2층 (망원동)",,126.90983646220093,37.555941904162324,14127538.37162983,4516883.832719685,
SFT0018015,의원,디스포의원,"서울특별시 마포구 마포대로 109, 3층 301호 (공덕동, 롯데캐슬프레지던트)",,126.950886259458,37.5451188164137,14132108.014157655,4515364.160576928,
SFT0018016,의원,디엠씨연세의원,"서울특별시 마포구 월드컵북로 361, 307호 (상암동, DMC이안상암2단지)",,126.89144086241132,37.577117261620685,14125490.582828414,4519857.707853311,
SFT0018017,의원,라렌의원,"서울특별시 마포구 월드컵북로 396, B1005,1006,1007호 (상암동, 누리꿈스퀘어)",,126.88999267922323,37.5795882089893,14125329.37181334,4520204.783718797,
SFT0018018,의원,랩이비인후과의원,"서울특별시 마포구 양화로 61, 두암빌딩 1(일부)2(일부)층 (서교동)",,126.915070906412,37.5508291995608,14128121.067293992,4516165.9292363385,
SFT0018019,의원,루나여성의원,"서울특별시 마포구 월드컵북로 402, 케이지아이티센터 204호, 205호 (상암동)",,126.888982346416,37.580107752042,14125216.902079709,4520277.761588826,
SFT0018020,의원,리뉴비뇨기과의원,"서울특별시 마포구 양화로 152, 8층 (동교동, 대화빌딩)",,126.922892344,37.5558250126,14128991.74574356,4516867.418770688,
SFT0018021,의원,리드힐정형외과의원,"서울특별시 마포구 월드컵북로 361, 2층 205~218,226호 (상암동, DMC이안2단지 )",,126.89140363299684,37.577110596377466,14125486.438468952,4519856.771651023,
SFT0018022,의원,리버스의원,"서울특별시 마포구 양화로 165, 상진빌딩 13층 (동교동)",,126.9236197709,37.5572094172,14129072.722535657,4517061.818942126,
SFT0018023,의원,리앤미가정의학과의원,"서울특별시 마포구 마포대로 115-12, 상가동 201,202,204,205호 (공덕동, 공덕삼성아파트)",,126.9511516935,37.5456912411,14132137.562140048,4515444.529327081,
SFT0018024,의원,리앤영의원,"서울특별시 마포구 양화로 162, 좋은사람들 빌딩 602호 (동교동)",,126.9238695499175,37.55643111692955,14129100.527808696,4516952.528405722,
SFT0018078,의원,리엔장의원,"서울특별시 마포구 양화로18길 3, 삼양세븐스프링스 4, 6층 (동교동)",,126.9245706303,37.5570298291,14129178.571719883,4517036.600707757,
SFT0018079,의원,리즈온의원홍대점,"서울특별시 마포구 홍익로 25, 5층 (서교동)",,126.9219657992853,37.55440443184595,14128888.603257723,4516667.94244372,
SFT0018080,의원,마리이비인후과의원,"서울특별시 마포구 백범로 96, 2층 (대흥동)",,126.94204772766721,37.54764048458302,14131124.113299346,4515718.208844969,
SFT0018081,의원,마음과사람정신건강의학과의원,"서울특별시 마포구 마포대로 53, 마포트라팰리스 C동 206호 (도화동)",,126.94705383730266,37.54143315385923,14131681.390874818,4514846.70624473,
SFT0018082,의원,마음사랑정신건강의학과의원,"서울특별시 마포구 신촌로16길 4, 3층 (노고산동)",,126.9348675421646,37.55547919090425,14130324.818705393,4516818.858532975,
SFT0018083,의원,마음쉼표정신건강의학과의원,"서울특별시 마포구 마포대로 68, 5층 503호, 504호 (도화동, 마포아크로타워)",,126.948961312534,37.5413315500222,14131893.730046272,4514832.441778168,
SFT0018084,의원,마음이해정신건강의학과의원,"서울특별시 마포구 양화로 59, 화승리버스텔 2층 (서교동)",,126.914885960173,37.5506586876484,14128100.479172843,4516141.987552504,
SFT0018085,의원,마인드맨션의원,"서울특별시 마포구 마포대로 68, 7층 702호 (도화동, 마포아크로타워)",,126.94895938790589,37.54133308089632,14131893.51579765,4514832.65670202,
SFT0018397,치과의원,서울리더스치과의원,서울특별시 마포구 월드컵북로 78 (성산동),,126.9161517627045,37.56083343779177,14128241.387666095,4517570.726454948,
SFT0018398,치과의원,서울리베뉴치과의원,"서울특별시 마포구 독막로20나길 22, 상가2동 B07호 (상수동, 밤섬리베뉴1단지)",,126.92607213837677,37.54613963358118,14129345.718834411,4515507.484316429,
SFT0018399,치과의원,서울메디케어치과의원,"서울특별시 마포구 마포대로 156, 217,218호 (공덕동, 공덕푸르지오시티)",,126.9543685546,37.5479378173,14132495.661479654,4515759.955861999,
SFT0018400,치과의원,서울미네르반치과의원,서울특별시 마포구 월드컵북로 137,,126.91148377991358,37.564942083909735,14127721.750198778,4518147.718039956,
SFT0018401,치과의원,서울봄봄치과의원,"서울특별시 마포구 독막로 88, 2층 (상수동)",,126.92314225170597,37.54742794511679,14129019.565342134,4515688.367331197,
SFT0018402,치과의원,서울뿌리깊은치과의원,"서울특별시 마포구 월드컵북로 167, 2층 (성산동, 나디빌딩)",,126.9097959491,37.5670169214,14127533.861732066,4518439.106838944,
SFT0018403,치과의원,서울상아치과의원,"서울특별시 마포구 도화길 32, 삼성프라자 309호 (도화동)",,126.9495933617,37.5408540213,14131964.089437585,4514765.40035301,
SFT0018404,치과의원,서울새한치과의원,"서울특별시 마포구 대흥로 183, 신촌그랑자이 상가 207,208호 (대흥동)",,126.945660437538,37.5558352535218,14131526.278322544,4516868.856803037,
SFT0018405,치과의원,서울스마티스치과의원,"서울특별시 마포구 독막로 5, 3층 (합정동)",,126.91430797508165,37.54901836271093,14128036.138166789,4515911.671304079,
SFT0018406,치과의원,서울애플민트치과의원,"서울특별시 마포구 양화로 157, 202호 (동교동, 파라다이스텔)",,126.922949966052,37.5566882957272,14128998.160201048,4516988.6418590145,
SFT0018407,치과의원,서울앤플란트치과의원,"서울특별시 마포구 월드컵북로 347, 5층 (상암동, 상암메디컬빌딩)",,126.89317626505,37.57635843427464,14125683.766966475,4519751.123249645,
SFT0018408,치과의원,서울에스치과의원,"서울특별시 마포구 월드컵로13길 8, 3층 (망원동)",,126.9096736178,37.555837264,14127520.24387404,4516869.139114821,
SFT0018409,치과의원,서울여건봉치과의원,"서울특별시 마포구 마포대로 115-12, 공덕삼성아파트 6층 601~606호 (공덕동)",,126.9511516935,37.5456912411,14132137.562140048,4515444.529327081,
SFT0018410,치과의원,서울연두치과의원,"서울특별시 마포구 마포대로 63-8, 삼창프라자빌딩, 214호일부, 228~231호, 240호일부  (도화동)",,126.94781364433918,37.54225880774428,14131765.972207224,4514962.622983886,
SFT0018411,치과의원,서울예스치과의원,서울특별시 마포구 도화길 29,,126.949158829,37.5409006871,14131915.717478689,4514771.951859871,
SFT0018412,치과의원,서울우리치과의원,서울특별시 마포구 굴레방로 17 (아현동),,126.9555499161,37.555643604,14132627.170040276,4516841.945370481,
SFT0018413,치과의원,서울유펜치과의원,서울특별시 마포구 양화로 116 (서교동),,126.9200109054,37.5537363854,14128670.985465858,4516574.137439333,
SFT0018414,치과의원,서울이안치과의원,"서울특별시 마포구 월드컵북로 375, 2층 210호 (상암동, DMC이안상암1단지)",,126.89074315114763,37.577365281281836,14125412.91396582,4519892.544837169,
SFT0018453,치과의원,서울이편한치과의원,"서울특별시 마포구 월드컵로14길 5, 2층 (서교동, 마벨빌딩)",,126.9107010382,37.556003829,14127634.615789799,4516892.528234798,
SFT0018541,의원,오세오안과의원,"서울특별시 마포구 신촌로 174, 2층 (대흥동, 중우빌딩)",,126.94499698630001,37.5564860972,14131452.423268564,4516960.248811734,
SFT0018768,의원,마포의료복지사회적협동조합무지개의원,"서울특별시 마포구 월드컵로 80, 7층 (서교동, 아침뜨락빌딩)",,126.91044729110178,37.556201856243156,14127606.368792035,4516920.335362821,
SFT0018769,의원,마포정형외과의원,서울특별시 마포구 백범로37길 26 (신공덕동),,126.9549230116,37.54424033040001,14132557.383350562,4515240.821843338,
SFT0018770,의원,마포합정본정형외과의원,"서울특별시 마포구 월드컵로3길 14, 2층 214~216호 (합정동, 마포 한강 2차 푸르지오)",,126.9116485435,37.5510094108,14127740.091597319,4516191.232868223,
SFT0018771,의원,만리서울정형외과의원,"서울특별시 마포구 마포대로24길 51, 2층 (아현동)",,126.96195640092963,37.55177334831833,14133340.336669289,4516298.498742831,
SFT0018772,의원,맑은성모이비인후과의원,"서울특별시 마포구 월드컵북로 402, 케이지아이티센터 316,317호 (상암동)",,126.88898110243768,37.58010684988462,14125216.763600675,4520277.634866408,
SFT0018773,의원,메이드유의원,"서울특별시 마포구 양화로 165, 상진빌딩 12층 (동교동)",,126.92361977091058,37.55720941721661,14129072.722536836,4517061.818944455,
SFT0018774,의원,메이퓨어의원,"서울특별시 마포구 월드컵북로2길 57, 5층 501호 (동교동)",,126.9233659653,37.5574939679,14129044.469025504,4517101.776425894,
SFT0018775,의원,메이퓨어의원마포공덕점,"서울특별시 마포구 마포대로 68, 지하1층 B05,B06(일부)호 (도화동, 마포아크로타워)",,126.9488439747368,37.54133032795622,14131880.668062435,4514832.270208789,
SFT0018776,의원,모믈88의원,"서울특별시 마포구 신촌로16길 34, 2층 (노고산동)",,126.93420207219644,37.55424249713373,14130250.7389274,4516645.203997819,
SFT0018777,의원,뮤즈의원,"서울특별시 마포구 서강로 136, 아이비타워 7층 (노고산동)",,126.93579116962299,37.554045152488946,14130427.636443743,4516617.4934492195,
SFT0018778,의원,미소가인피부과의원,"서울특별시 마포구 마포대로 68, 602호 (도화동, 마포아크로타워)",,126.94888377282885,37.54125060763673,14131885.098365778,4514821.0780484965,
SFT0018779,의원,미소가인피부과의원아현점,"서울특별시 마포구 신촌로 266, 2층 (아현동)",,126.955140384222,37.5570813508888,14132581.581160156,4517043.835526926,
SFT0018780,의원,미소정신건강의학과의원,"서울특별시 마포구 마포대로 52, 207호 (도화동, 고려아카데미텔Ⅱ)",,126.9476610986,37.5403378088,14131748.990893215,4514692.928500644,
SFT0018781,의원,민정신건강의학과의원,"서울특별시 마포구 성암로 189, 지하1층 B104-1호 (상암동, 중소기업 DMC 타워)",,126.89789761839905,37.57675599415053,14126209.345617147,4519806.964224844,
SFT0018782,의원,밀리의원,"서울특별시 마포구 신촌로 104, 2(일부)층 (노고산동)",,126.937542844145,37.5547107580337,14130622.631959569,4516710.9560955595,
SFT0018783,의원,바로마디의원,"서울특별시 마포구 굴레방로1길 25, 지1층 205,208호 (아현동, 애오개아이파크)",,126.9559855627,37.5538417718,14132675.665997954,4516588.935414021,
SFT0018784,의원,바른본외과의원,"서울특별시 마포구 월드컵로13길 34, 두드림빌딩 2층 201호 (망원동)",,126.9082614297,37.5556559758,14127363.039813844,4516843.68261698,
SFT0018785,의원,박상수내과의원,"서울특별시 마포구 독막로 22, 2층 (합정동)",,126.91572699198193,37.54829855423,14128194.102405556,4515810.605374738,
SFT0018836,의원,박영준내과의원,"서울특별시 마포구 월드컵로 155, 2층 (망원동, 가은빌딩)",,126.90499606185756,37.56131858732154,14126999.540728372,4517638.856048198,
SFT0018837,의원,박찬이비인후과의원,"서울특별시 마포구 창전로 60, 4층 (구수동)",,126.9328950609,37.5477978227,14130105.243095418,4515740.299891484,
SFT0018838,의원,박혜정산부인과의원,"서울특별시 마포구 양화로 156, 301호 (동교동, LG팰리스빌딩)",,126.9234488643,37.5561136939,14129053.697299972,4516907.955534013,
SFT0018839,의원,백신경외과의원,서울특별시 마포구 월드컵로 128 (성산동),,126.9071609379,37.5596627502,14127240.533627048,4517406.328515185,
SFT0018840,의원,백피부과의원,"서울특별시 마포구 연희로 5, 2층 (동교동)",,126.92626719423131,37.55922574485461,14129367.432352815,4517344.961158204,
SFT0018841,의원,밴스의원,"서울특별시 마포구 양화로 148, 스칼렛빌딩 6층 (동교동)",,126.922655802811,37.5556134838886,14128965.414098848,4516837.715909677,
SFT0018842,의원,베스트본의원한의원,"서울특별시 마포구 월드컵북로 19, 대상빌딩 5,6층 (서교동)",,126.91967888162648,37.55631657131538,14128634.024748458,4516936.443769635,
SFT0018843,의원,베스트연세재활의학과의원,"서울특별시 마포구 월드컵북로 236, 3층 (중동)",,126.903430388,37.57029871699999,14126825.2507118,4518900.016605613,
SFT0018844,의원,벨아미-리노보의원,"서울특별시 마포구 양화로 151, 8층 (동교동)",,126.922368229397,37.5562674192411,14128933.401572837,4516929.541782469,
SFT0018845,의원,보아스이비인후과의원,"서울특별시 마포구 마포대로24길 56, 6층 (아현동, 보령빌딩)",,126.96206273709822,37.55147299173521,14133352.173957428,4516256.324990389,
SFT0018846,의원,본항외과의원,"서울특별시 마포구 월드컵로 125, 4층 (망원동)",,126.9067539899,37.559262387,14127195.232382907,4517350.106691548,
SFT0018847,의원,봄눈피우다의원,"서울특별시 마포구 양화로 192, 3층 (동교동)",,126.926246501876,37.5583280533329,14129365.128890356,4517218.902144847,
SFT0018848,의원,뷰티라운지의원,"서울특별시 마포구 양화로 162, 좋은사람들 빌딩 1301호 (동교동)",,126.923871361997,37.5564298566954,14129100.729528464,4516952.351441961,
SFT0018849,의원,뷰티스톤의원,"서울특별시 마포구 양화로 45, 몰동 215,216,217,218호 (서교동, 메세나폴리스)",,126.91395024016,37.5515008030203,14127996.315297471,4516260.230029177,
SFT0018850,의원,삼성밝은안과의원,"서울특별시 마포구 양화로 156, 303호 (동교동, 엘지팰리스빌딩)",,126.9234488643,37.55611369390001,14129053.697299972,4516907.955534013,
SFT0018851,의원,삼성사과나무정신건강의학과의원,"서울특별시 마포구 마포대로 33, 205,206호 (도화동, 한화오벨리스크)",,126.94559862072768,37.54024359015768,14131519.396906696,4514679.701057325,
SFT0018852,의원,박신혜유외과의원,"서울특별시 마포구 마포대로 44, 2층 2호 (도화동, 진도빌딩)",,126.9471001294,37.5399735549,14131686.544087522,4514641.790647534,
SFT0018855,의원,신재경정신건강의학과의원,"서울특별시 마포구 양화로 156, 3층 315호 (동교동, LG팰리스빌딩)",,126.9234488643,37.55611369390001,14129053.697299972,4516907.955534013,
SFT0018856,의원,신촌김안과의원,"서울특별시 마포구 신촌로16길 4, 4층 (노고산동)",,126.9348166263,37.5555042346,14130319.150777271,4516822.37515792,
SFT0018857,의원,신촌삼성의원,"서울특별시 마포구 신촌로 162, 캠프21오피스텔 2층일부, 3층 (대흥동)",,126.943716084745,37.556319439695,14131309.833959706,4516936.84655073,
SFT0018858,의원,신촌서울하정외과의원,"서울특별시 마포구 신촌로 92, 9층 (노고산동, 카리스빌딩)",,126.9356815527,37.5551767458,14130415.433943694,4516776.389415348,
SFT0018859,의원,신촌연세이비인후과의원,"서울특별시 마포구 신촌로 88, 5층 (노고산동, 태영빌딩)",,126.93529669521852,37.55528104653098,14130372.591804828,4516791.035227304,
SFT0018860,의원,신촌연세이비인후과이대점의원,"서울특별시 마포구 신촌로 190, 3,4층 (염리동, 대연빌딩)",,126.9467081032,37.5566094175,14131642.90393056,4516977.565640416,
SFT0018861,의원,신촌재활의학과의원,"서울특별시 마포구 서강로 133, 신촌병우빌딩 2층 일부호 (노고산동)",,126.935266304232,37.5544113917507,14130369.208695684,4516668.919736324,
SFT0018862,의원,신촌티오피산부인과의원,"서울특별시 마포구 신촌로 92, 신촌카리스빌딩 8층 (노고산동)",,126.9356815527,37.5551767458,14130415.433943694,4516776.389415348,
SFT0018863,의원,씨브이엘의원,"서울특별시 마포구 동교로 227-13, 지하1층~지상3층 (연남동)",,126.923412969604,37.5608865218381,14129049.701520693,4517578.181030861,
SFT0018864,의원,씨티창문외과의원,"서울특별시 마포구 마포대로 63-8, 삼창프라자빌딩 2층 206,207,208(일부),222(일부),223호 (도화동)",,126.94781364433918,37.54225880774428,14131765.972207224,4514962.622983886,
SFT0018865,의원,아름다운동안의원,"서울특별시 마포구 월드컵북로 402, 케이지아이티센터 311,312,313호 (상암동)",,126.88898110243768,37.58010684988462,14125216.763600675,4520277.634866408,
SFT0018866,의원,아마존여성의원,"서울특별시 마포구 새창로 11, 2층 (도화동)",,126.95132578928957,37.54246933954342,14132156.942394694,4514992.180562034,
SFT0018867,의원,아비쥬의원,"서울특별시 마포구 양화로 162, 좋은사람들 빌딩 701호 (동교동)",,126.9238695499,37.5564311169,14129100.52780675,4516952.528401575,
SFT0018868,의원,아현재활의학과의원,"서울특별시 마포구 굴레방로 27, 2층 (아현동)",,126.95532261857,37.5564770309498,14132601.867394978,4516958.975715884,
SFT0018869,의원,안재현마취통증의학과의원,"서울특별시 마포구 양화로 64, 4층 401호 (서교동, 서교제일빌딩)",,126.91580480870002,37.55030966899999,14128202.764922986,4516092.981797469,
SFT0018904,의원,삼성안과의원,"서울특별시 마포구 월드컵로 75, 2층 (망원동)",,126.91012778060343,37.555693288110874,14127570.801046057,4516848.922008422,
SFT0018905,의원,상암정신건강의학과의원,"서울특별시 마포구 월드컵북로 402, 케이지아이티센터 215,220호 (상암동)",,126.888982346416,37.580107752042,14125216.902079709,4520277.761588826,
SFT0018906,의원,상암정형외과의원,"서울특별시 마포구 월드컵북로 347, 301호 (상암동, 상암메디칼빌딩)",,126.89321602420001,37.576344602899994,14125688.192934807,4519749.180510042,
SFT0018907,의원,상암탑신경외과의원,"서울특별시 마포구 월드컵북로 402, 301~304호 (상암동, 케이지아이티센터)",,126.8889811024,37.5801068499,14125216.76359648,4520277.634868566,
SFT0018908,의원,새하늘정형외과의원,"서울특별시 마포구 양화로 165, 5층 (동교동, 상진빌딩)",,126.9236197709,37.5572094172,14129072.722535657,4517061.818942126,
SFT0018909,의원,샤론의원,"서울특별시 마포구 신촌로 120, 4층 (노고산동)",,126.939170321163,37.5554718694508,14130803.801872492,4516817.830457871,
SFT0018910,의원,샤인의원,"서울특별시 마포구 월드컵북로 434, 207호 (상암동, 상암아이티타워)",,126.8860489035,37.5816213285,14124890.352708029,4520490.369752164,
SFT0018911,의원,서교외과의원,"서울특별시 마포구 양화로 133, 4층 (서교동, 서교타워)",,126.92096887016737,37.5553876532819,14128777.625615958,4516806.004869625,
SFT0018912,의원,서교정형외과의원,"서울특별시 마포구 월드컵로 80, 서교양경회관 5층 (서교동)",,126.91044570472,37.5562034768287,14127606.192196824,4516920.562926913,
SFT0018913,의원,서울라헬여성의원,"서울특별시 마포구 마포대로 109, 2, 3층 (공덕동, 롯데캐슬프레지던트)",,126.95014417083837,37.54470016065413,14132025.405230395,4515305.3814619025,
SFT0018914,의원,서울메디케어의원,"서울특별시 마포구 마포대로 156, 지하1층 (공덕동, 공덕푸르지오시티)",,126.95412528947912,37.54782646459188,14132468.58133027,4515744.321359181,
SFT0018915,의원,서울숲정신건강의학과의원,"서울특별시 마포구 양화로 133, 서교타워 2층 201(일부)호 (서교동)",,126.920982708821,37.55523107395,14128779.166127833,4516784.01812125,
SFT0018916,의원,서울안과의원,"서울특별시 마포구 양화로 166, 3층 (동교동)",,126.9241680135,37.556744856,14129133.75262272,4516996.584158646,
SFT0018917,의원,서울안내과의원,"서울특별시 마포구 월드컵로 75, 3층 (망원동)",,126.9101537214,37.5556322029,14127573.68876232,4516840.344429797,
SFT0018918,의원,서울에스앤유비뇨의학과의원,"서울특별시 마포구 양화로 72, 2층 205,206호 (서교동)",,126.916715922466,37.5508021700653,14128304.18964347,4516162.134004386,
SFT0018919,의원,서울이비인후과의원,"서울특별시 마포구 도화길 32, 407호 (도화동, 삼성아파트상가동)",,126.94959336167302,37.54085402134723,14131964.089434583,4514765.400359643,
SFT0018920,의원,서울제이씨정신건강의학과의원,"서울특별시 마포구 백범로31길 7, 2동 2층 201호 (공덕동, 공덕SK리더스뷰)",,126.94870244291,37.5452627685789,14131864.912811546,4515384.371484367,
SFT0018921,의원,앙띠라쥬의원,"서울특별시 마포구 도화길 32, 302호 (도화동, 삼성아파트상가동)",,126.94959336167302,37.54085402134723,14131964.089434583,4514765.400359643,
SFT0018922,의원,양성우산부인과의원,"서울특별시 마포구 월드컵북로 230, 207호 (중동, 현대상가)",,126.9038335685,37.5701404709,14126870.132559758,4518877.791363312,
SFT0018923,의원,양이비인후과의원,서울특별시 마포구 양화로 156,,126.92349075795647,37.556138953773335,14129058.36088048,4516911.502544723,
SFT0018924,의원,에버유의원,"서울특별시 마포구 마포대로 63-8, 삼창프라자빌딩 208(일부),224,225호 (도화동)",,126.947815454166,37.5422597095372,14131766.173676224,4514962.749590781,
SFT0018925,의원,에스앤유피부과의원,"서울특별시 마포구 백범로 178, 2층 A203(일부),204,B202~204(일부)호 (공덕동)",,126.9500756304,37.5438815847,14132017.775343696,4515190.454651979,
SFT0018926,의원,에스준의원,"서울특별시 마포구 동교로 191, 2층 201호 (동교동, D.B.M빌딩)",,126.92237448809236,37.55754377600658,14128934.098287618,4517108.7706489805,
SFT0018927,의원,에이원정신건강의학과의원,"서울특별시 마포구 동교로 179, 2층 (동교동)",,126.9214247257,37.5566673785,14128828.371221727,4516985.704624252,
SFT0018928,의원,엘의원,"서울특별시 마포구 마포대로 225, 2층 (아현동)",,126.9566825202,37.5541447648,14132753.250951959,4516631.480704761,
SFT0018929,의원,연세가정의학과의원,"서울특별시 마포구 연희로 37, 2층 (연남동)",,126.92711544792675,37.562087824536185,14129461.859522255,4517746.881010642,
SFT0018930,의원,연세광안과의원,"서울특별시 마포구 신촌로 270, 8층 (아현동, 수창빌딩)",,126.95571201165127,37.55712130067648,14132645.214434505,4517049.445380036,
SFT0018931,의원,연세나무소아청소년과의원,"서울특별시 마포구 월드컵북로 502, 201호 (상암동, 월드컵파크프라자)",,126.8798131199802,37.58503812649416,14124196.188461907,4520970.334406215,
SFT0018932,의원,연세뉴키즈소아청소년과의원,"서울특별시 마포구 마포대로 195 (아현동, 마포래미안푸르지오4단지 상가 4-220호, 4-219호 일부)",,126.95382789574789,37.552810627328476,14132435.475611545,4516444.146759955,
SFT0018933,의원,연세디엠씨재활의학과의원,"서울특별시 마포구 성암로 255, (주)문화방송 몰 프라자 2층 202호 (상암동)",,126.89181859148,37.5802785107294,14125532.631435998,4520301.747402901,
SFT0018934,의원,연세로뎀정신건강의학과의원,"서울특별시 마포구 서강로 142, 3층,5층 (노고산동)",,126.93635785446051,37.554373606674524,14130490.719511295,4516663.614050508,
SFT0018935,의원,연세리즈의원,"서울특별시 마포구 서강로 137, 2층 201~202호 (노고산동, (주)HTC까사빌)",,126.93559597865871,37.554668536566204,14130405.907884993,4516705.027439133,
SFT0018936,의원,연세마취통증의학과의원,"서울특별시 마포구 월드컵북로 24, 2층 (동교동)",,126.9197855756,37.5570158632,14128645.90186726,4517034.639581813,
SFT0018937,의원,연세맑은정신건강의학과의원,"서울특별시 마포구 월드컵로 87, 마포로얄프라자 3층 301호 (망원동)",,126.90924278373607,37.556474839681066,14127472.283645429,4516958.668014812,
SFT0018938,의원,연세멘토정신건강의학과의원,"서울특별시 마포구 백범로 1, 3층 (노고산동)",,126.9371850089,37.5545576689,14130582.79792231,4516689.459632862,
SFT0018946,의원,가든안과의원,"서울특별시 마포구 마포대로 52, 2층 202호 (도화동, 고려아카데미텔2)",,126.94763976345718,37.54034545018143,14131746.615875982,4514694.001282065,
SFT0018949,의원,정동균내과의원,서울특별시 마포구 서강로 132 (노고산동),,126.9354699344,37.5538467579,14130391.876702296,4516589.635544548,
SFT0018969,의원,서울크리스탈피부과의원,"서울특별시 마포구 신촌로 88, 6층 (노고산동, 태영빌딩)",,126.935332865,37.555309903,14130376.618206486,4516795.087229553,
SFT0018970,의원,서울탑정신건강의학과의원,"서울특별시 마포구 마포대로 68 (도화동, 마포아크로타워)",,126.9489593879,37.5413330809,14131893.515796997,4514832.656702537,
SFT0018971,의원,서피부과의원,서울특별시 마포구 양화로 128 (서교동),,126.9210844038831,37.55429931923688,14128790.486770362,4516653.182802299,
SFT0018972,의원,선내과의원,"서울특별시 마포구 월드컵로 82, 2층 (서교동, 소단빌딩)",,126.910257102,37.5562485637,14127585.197038071,4516926.894068303,
SFT0018973,의원,성모수마취통증의학과의원,"서울특별시 마포구 월드컵로 83, 2층 (망원동)",,126.9096369757422,37.55619042690317,14127516.164898824,4516918.730444664,
SFT0018974,의원,성모안과의원,"서울특별시 마포구 도화길 32, 301호 (도화동, 삼성프라자)",,126.94967151295123,37.540948222638384,14131972.789195077,4514778.625475288,
SFT0018975,의원,세가지소원의원,"서울특별시 마포구 양화로 165, 상진빌딩 11(일부)층 (동교동)",,126.923619092959,37.5572083355752,14129072.64706761,4517061.667057335,
SFT0018976,의원,세린산부인과의원,"서울특별시 마포구 양화로 148, 6층 601호 (동교동, 교정빌딩)",,126.9226571622,37.5556122234,14128965.565425342,4516837.538912124,
SFT0018977,의원,세진정형외과의원,서울특별시 마포구 월드컵로 92 (서교동),,126.90960379484185,37.556957150106214,14127512.471217895,4517026.394949152,
SFT0018978,의원,센스의원,"서울특별시 마포구 신촌로 78, 3층 (노고산동)",,126.9344859802,37.555709479,14130282.343421787,4516851.1955324765,
SFT0018979,의원,센스이비인후과의원,"서울특별시 마포구 숭문길 221, 2층 (대흥동)",,126.94641871306644,37.55616599113077,14131610.689168252,4516915.299152444,
SFT0018980,의원,손비뇨기과의원,"서울특별시 마포구 월드컵북로 230, 307호 (중동, 현대상가)",,126.9038335685,37.5701404709,14126870.132559758,4518877.791363312,
SFT0018981,의원,스마트성형외과의원,"서울특별시 마포구 마포대로 109, 3층 (공덕동, 롯데캐슬프레지던트)",,126.95088501519565,37.54511809510328,14132107.875647005,4515364.059304927,
SFT0018982,의원,스타준성형외과의원,"서울특별시 마포구 월드컵로1길 14, 212~214호 (합정동, 마포한강푸르지오)",,126.91190020474565,37.54990668398086,14127768.106399039,4516036.3989025615,
SFT0018983,의원,시민내과의원,서울특별시 마포구 대흥로 192-1 (대흥동),,126.9461380095,37.5561802841,14131579.441390172,4516917.306183367,
SFT0018984,의원,신.홍산부인과의원,"서울특별시 마포구 만리재로 31, 성은빌딩 2~3층 (신공덕동)",,126.9547189617,37.5448493278,14132534.668619595,4515326.324436595,
SFT0018985,의원,신계원소아청소년과의원,서울특별시 마포구 망원로 74-1 (망원동) 2층,,126.90518107320868,37.557260921193084,14127020.136097768,4517069.051279804,
SFT0018987,의원,연세바른재활의학과의원,"서울특별시 마포구 토정로37길 41, 하나프라자 2층 (염리동)",,126.9467089468,37.5427088141,14131642.997839684,4515025.801655434,
SFT0018988,의원,연세보드미의원,"서울특별시 마포구 월드컵로3길 14, 116호 (합정동, 마포 한강 2차 푸르지오)",,126.91164899787,37.5510079695241,14127740.142177556,4516191.030497061,
SFT0018989,의원,연세비앤에이의원,"서울특별시 마포구 굴레방로 17, 3층 (아현동)",,126.9555499161,37.555643604,14132627.170040276,4516841.945370481,
SFT0018990,의원,연세사랑산부인과의원,"서울특별시 마포구 마포대로 68, 5층 502호 (도화동, 마포아크로타워)",,126.948961312534,37.5413315500222,14131893.730046272,4514832.441778168,
SFT0018991,의원,연세선앤유외과의원,"서울특별시 마포구 신촌로 92, 신촌카리스빌딩 12층 1호 (노고산동)",,126.93568155272426,37.55517674584637,14130415.433946393,4516776.389421862,
SFT0018992,의원,연세소리이비인후과의원,"서울특별시 마포구 백범로31길 7, 2층 203,204,205호 (공덕동, 공덕SK리더스뷰)",,126.94870244291,37.5452627685789,14131864.912811546,4515384.371484367,
SFT0018993,의원,연세수정형외과의원,"서울특별시 마포구 신촌로 88, 태영빌딩 3층 (노고산동)",,126.9335396178,37.5559684374,14130176.994841311,4516887.558528635,
SFT0018994,의원,연세시원정형외과의원,"서울특별시 마포구 월드컵로 79, 5층 (망원동, 유용빌딩)",,126.90983646220093,37.555941904162324,14127538.37162983,4516883.832719685,
SFT0018995,의원,연세신경외과의원,"서울특별시 마포구 월드컵로 75, 302호 (망원동)",,126.9101537214,37.5556322029,14127573.68876232,4516840.344429797,
SFT0018996,의원,연세위더스여성의원,"서울특별시 마포구 양화로 178, 11층 (동교동, 목화빌딩)",,126.92521412767331,37.55750598072319,14129250.205519807,4517103.463306803,
SFT0018997,의원,연세이현철내과의원,"서울특별시 마포구 서강로 133, 4층 (노고산동, 병우빌딩)",,126.93526573743793,37.55441247264344,14130369.145600457,4516669.07151262,
SFT0018998,의원,연세재활의학과의원,"서울특별시 마포구 도화길 32, 403호 (도화동, 삼성아파트상가동)",,126.9495933617,37.5408540213,14131964.089437585,4514765.40035301,
SFT0018999,의원,연세정형외과의원,"서울특별시 마포구 신촌로 262, 아르띠타워 가동 3층 301호 (아현동)",,126.9557120117,37.5571213007,14132645.214439929,4517049.445383336,
SFT0019000,의원,연세제일정형외과의원,"서울특별시 마포구 백범로 107, 지하1~지상1층 (대흥동)",,126.9432065546,37.5475437448,14131253.11332342,4515704.62612614,
SFT0019001,의원,연세지움피부과의원,"서울특별시 마포구 서강로 144, 9층 902호 (노고산동)",,126.93662826395412,37.554485291604195,14130520.821358431,4516679.296576559,
SFT0019002,의원,연세진정신건강의학과의원,"서울특별시 마포구 만리재로 15, 2층 203호 (공덕동, 제일빌딩)",,126.9527682959,37.5445854719,14132317.521496033,4515289.279260508,
SFT0019003,의원,연세척척마취통증의학과의원,"서울특별시 마포구 월드컵로 74, 3층 (서교동, 원천빌딩)",,126.91072846653842,37.55578040244273,14127637.669098465,4516861.154605523,
SFT0019004,의원,연세플러스의원,"서울특별시 마포구 마포대로 68 (도화동, 아크로타워 307, 308호)",,126.9487163831466,37.541146017791796,14131866.464631587,4514806.394403598,
SFT0019009,의원,정성일내과의원,"서울특별시 마포구 마포대로 143, 212호 (공덕동, 마포파크팰리스)",,126.95314783096319,37.547436839947366,14132359.771146005,4515689.616204411,
SFT0019010,의원,정유리정신건강의학과의원,"서울특별시 마포구 백범로 202, 2층 210호 (신공덕동, 마포케이씨씨웰츠타워)",,126.952468627776,37.5428481347733,14132284.162593063,4515045.361667723,
SFT0019011,의원,제일성모가정의학과의원,"서울특별시 마포구 월드컵북로 137, 3층 301호 (성산동, 제일성모메디칼센터)",,126.9116639197,37.5648271121,14127741.803268075,4518131.571712689,
SFT0019012,의원,제일소아청소년과의원,"서울특별시 마포구 월드컵북로 137, 3층 (성산동)",,126.9116639197,37.5648271121,14127741.803268075,4518131.571712689,
SFT0019013,의원,조앤필이비인후과의원,"서울특별시 마포구 백범로 202, 201,202,203,217호 (신공덕동, 마포케이씨씨웰츠타워)",,126.9524706645,37.5428482257,14132284.38932014,4515045.374433444,
SFT0019014,의원,조은샘의원,"서울특별시 마포구 망원로8길 53, 2층 (망원동)",,126.90650569696694,37.55507796025964,14127167.592540031,4516762.51806025,
SFT0019015,의원,조은영소아청소년과의원,"서울특별시 마포구 토정로31길 24 (용강동, e편한세상마포3차 A상가 B116호, 117호 일부)",,126.94365415636015,37.54221725229534,14131302.940123439,4514956.788823164,
SFT0019016,의원,조지연산부인과의원,"서울특별시 마포구 월드컵북로 396, 지하1층 1014,1015호 (상암동, 누리꿈스퀘어)",,126.89041861722959,37.579404809426954,14125376.787015317,4520179.022530817,
SFT0019017,의원,조환석내과의원,"서울특별시 마포구 월드컵북로 224, 201,202,301호 (성산동)",,126.90469881319999,37.5698023984,14126966.451159172,4518830.310141382,
SFT0019018,의원,주정신건강의학과의원,"서울특별시 마포구 서강로 144, 403호 (노고산동, 동인빌딩)",,126.93662826399999,37.5544852916,14130520.821363537,4516679.296575967,
SFT0019021,의원,홍익한사랑의원,"서울특별시 마포구 독막로 63, 2층 (상수동)",,126.92053898219076,37.547966783390684,14128729.770705303,4515764.0228565065,
SFT0019022,의원,화인의원,"서울특별시 마포구 마포대로 52, 3층 (도화동, 고려아카데미텔)",,126.9476610986,37.5403378088,14131748.990893215,4514692.928500644,
SFT0019023,의원,황호성형외과의원,"서울특별시 마포구 신촌로 154, 3층 (노고산동)",,126.9426566265,37.5563588441,14131191.895607354,4516942.379763187,
SFT0019024,치과병원,네모치과병원,"서울특별시 마포구 양화로 178, 3층 (동교동)",,126.92514620401074,37.55752395660594,14129242.644292274,4517105.987541033,
SFT0019025,치과병원,신촌다인치과병원,"서울특별시 마포구 신촌로 94, 10층,11층 (노고산동, 그랜드플라자)",,126.93599859397659,37.55499311462319,14130450.726817165,4516750.604145546,
SFT0019026,치과병원,한그루치과병원,"서울특별시 마포구 마포대로 78, 자람빌딩 3층 (도화동)",,126.94977371466484,37.541881237862604,14131984.166237796,4514909.614330019,
SFT0019027,치과의원,가든치과의원,"서울특별시 마포구 마포대로 52, 204호 (도화동, 고려아카데미텔)",,126.9476610986,37.5403378088,14131748.990893215,4514692.928500644,
SFT0019028,치과의원,같은생각치과의원,"서울특별시 마포구 매봉산로 75, 205호 (상암동, 디디엠씨)",,126.89290055938943,37.578452642753604,14125653.07555273,4520045.277622733,
SFT0019029,치과의원,건강한e-치과의원,"서울특별시 마포구 망원로 80, 2층 (망원동)",,126.9056834699,37.55734421529999,14127076.062641624,4517080.747686566,
SFT0019030,치과의원,경성길치과의원,"서울특별시 마포구 동교로 207, 6층 (동교동)",,126.92325735156174,37.55856065994177,14129032.37819947,4517251.565958686,
SFT0019031,치과의원,고운미소치과의원,"서울특별시 마포구 신촌로 88, 6층 (노고산동, 태영빌딩)",,126.93533286503312,37.55530990302297,14130376.61821017,4516795.0872327825,
SFT0019032,치과의원,고은이(e)플란트치과의원,"서울특별시 마포구 백범로 202, 2층 206~207호 (신공덕동, 마포KCC웰츠타워2층)",,126.95262576573955,37.54284517054559,14132301.655111149,4515044.945502757,
SFT0019033,치과의원,그린서울치과의원,"서울특별시 마포구 백범로 90, 4층 (대흥동)",,126.941531533,37.5478420589,14131066.650771841,4515746.510880225,
SFT0019034,치과의원,기세호치과의원,"서울특별시 마포구 연희로 39, 2층 (연남동)",,126.9272408813,37.562401445700004,14129475.822701491,4517790.923550449,
SFT0019035,치과의원,김엔드장치과의원,서울특별시 마포구 양화로 156  (동교동),,126.92335039284823,37.55616769261545,14129042.735508103,4516915.538076355,
SFT0019036,치과의원,김치과,"서울특별시 마포구 마포대로 68, 5층 505호 (도화동, 마포아크로타워)",,126.94895938790589,37.54133308089632,14131893.51579765,4514832.65670202,
SFT0019055,의원,연세피부과의원,"서울특별시 마포구 양화로 156, 302호 (동교동, 엘지팰리스빌딩)",,126.92345006817192,37.5560884714375,14129053.831314383,4516904.413777754,
SFT0019056,의원,열린성모이비인후과의원,"서울특별시 마포구 월드컵로 75, 2층 (망원동)",,126.9101537214,37.5556322029,14127573.68876232,4516840.344429797,
SFT0019057,의원,염문선내과의원,"서울특별시 마포구 마포대로24길 56, 3층, 4층 (아현동, 보령빌딩)",,126.96204917233251,37.551444155493236,14133350.663934615,4516252.276036867,
SFT0019058,의원,예담정형외과의원,"서울특별시 마포구 독막로 22, 3,5층 (합정동, 청명빌딩)",,126.93796009,37.5479087123,14130669.079555683,4515755.869365468,
SFT0019059,의원,온앤업의원,"서울특별시 마포구 토정로 222, 한국출판콘텐츠센터 2층 202호 (신수동)",,126.935295585029,37.5444976321635,14130372.468219096,4515276.946654599,
SFT0019060,의원,옵티마성형외과의원,"서울특별시 마포구 마포대로4다길 31, 아리수 빌딩 2(일부),5층 (마포동)",,126.94426102007499,37.535651051863766,14131370.495883156,4514034.970573161,
SFT0019061,의원,와이디의원,서울특별시 마포구 새창로 11 (도화동),,126.9513257893,37.5424693395,14132156.942395855,4514992.180555941,
SFT0019062,의원,우리가정의학과의원,서울특별시 마포구 월드컵로25길 58  (망원동),,126.90436534969484,37.55793060505288,14126929.33017158,4517163.090653483,
SFT0019063,의원,우리들가정의학과의원,서울특별시 마포구 토정로 219 (신수동),,126.93531008238427,37.54500607392325,14130374.082057303,4515348.331540161,
SFT0019064,의원,우성마취통증의학과의원,"서울특별시 마포구 굴레방로9길 2, 3층 (아현동)",,126.9555672621,37.5569266309,14132629.100988166,4517022.109371995,
SFT0019065,의원,움튼산부인과의원,"서울특별시 마포구 양화로 133, 2층 202호 (서교동, 서교타워)",,126.9209825939,37.5552326957,14128779.153334886,4516784.245845893,
SFT0019066,의원,유앤미의원,"서울특별시 마포구 양화로 165, 상진빌딩 14층 (동교동)",,126.923619092959,37.5572083355752,14129072.64706761,4517061.667057335,
SFT0019067,의원,유정신건강의학과의원,"서울특별시 마포구 월드컵로 82-1, 4층 (서교동)",,126.9102252618,37.5563746791,14127581.65260322,4516944.603333162,
SFT0019068,의원,윤병철정형외과의원,"서울특별시 마포구 월드컵로 159, 2, 4층 (망원동)",,126.9046456414,37.5617870974,14126960.532101471,4517704.6493828455,
SFT0019069,의원,윤정섭성형외과의원,"서울특별시 마포구 신촌로 174, 4층 (대흥동, 중우빌딩)",,126.94506135602674,37.55649000985975,14131459.588873766,4516960.79823307,
SFT0019070,의원,윤홍균정신건강의학과의원,"서울특별시 마포구 백범로 178, A-202호 (공덕동, 마포신영지웰)",,126.95021254364298,37.54400102062605,14132033.016456189,4515207.223194394,
SFT0019071,의원,이가인의원,"서울특별시 마포구 월드컵로 75, 6층 (망원동, 대흥빌딩)",,126.91015372142645,37.55563220293236,14127573.688765265,4516840.344434342,
SFT0019072,의원,차이의원,"서울특별시 마포구 월드컵로3길 14, 303~305호 (합정동, 마포한강2차푸르지오)",,126.9116485435,37.5510094108,14127740.091597319,4516191.232868223,
SFT0019073,의원,참본정형외과의원마포점,"서울특별시 마포구 창전로 60, 서강빌딩 2층 (구수동)",,126.9328950608555,37.54779782269741,14130105.243090464,4515740.29989112,
SFT0019074,의원,채비뇨기과의원,"서울특별시 마포구 신촌로 266-1, 4층 (아현동)",,126.9552774271,37.5571031169,14132596.836703552,4517046.89196647,
SFT0019075,의원,채움마취통증의학과의원,"서울특별시 마포구 마포대로 44, 4층 (도화동, 진도빌딩)",,126.9471001294,37.5399735549,14131686.544087522,4514641.790647534,
SFT0019076,의원,채종찬내과의원,서울특별시 마포구 대흥로 186-2 (대흥동),,126.94609306169987,37.55573336882376,14131574.43782395,4516854.550141557,
SFT0019077,의원,청감송명근의원,"서울특별시 마포구 신촌로 120, 6층 (노고산동)",,126.93917156716762,37.5554705186028,14130803.94057709,4516817.640772428,
SFT0019078,의원,케이트의원,"서울특별시 마포구 양화로 148, 스칼렛빌딩 7층 (동교동)",,126.9226571622,37.5556122234,14128965.565425342,4516837.538912124,
SFT0019079,의원,코넬비뇨기과의원,"서울특별시 마포구 만리재로 15, 제일빌딩 2층 205호 (공덕동)",,126.954279984,37.5447302267,14132485.801845562,4515309.602712708,
SFT0019080,의원,클린앤미피부과의원,"서울특별시 마포구 월드컵북로 347, 6층 (상암동, 상암메디칼빌딩)",,126.8932160242,37.5763446029,14125688.192934807,4519749.180510042,
SFT0019081,의원,타임리스피부과의원,"서울특별시 마포구 신촌로 270, 7층 (아현동, 수창빌딩)",,126.95571201165127,37.55712130067648,14132645.214434505,4517049.445380036,
SFT0019082,의원,톡스앤필의원홍대신촌점,"서울특별시 마포구 양화로 141, 롯데호텔 L7홍대, 3층일부 (동교동)",,126.92167014212922,37.55575212831247,14128855.690853659,4516857.184349736,
SFT0019083,의원,튼튼사랑소아청소년과의원,"서울특별시 마포구 백범로37길 26, 3층 (신공덕동)",,126.9549468184683,37.54421922063589,14132560.033519017,4515237.858067223,
SFT0019084,의원,퍼스트피부과의원,"서울특별시 마포구 백범로31길 7, 106,107호 (공덕동, 공덕SK리더스뷰)",,126.94870244291,37.5452627685789,14131864.912811546,4515384.371484367,
SFT0019085,의원,포도나무정형외과의원,"서울특별시 마포구 대흥로 34, 2~4층 (용강동)",,126.9385699944,37.5438184959,14130736.973802922,4515181.597133488,
SFT0019086,의원,포에버(FOREVER)의원,서울특별시 마포구 마포대로 92 (도화동),,126.951334598,37.542844159,14132157.922975853,4515044.803486059,
SFT0019087,의원,표진인정신과의원,서울특별시 마포구 백범로 199,,126.95284715975832,37.543439916814364,14132326.300580584,4515128.4456815785,
SFT0019088,의원,푸른성모이비인후과의원,"서울특별시 마포구 마포대로 195 (아현동, 마포래미안푸르지오상가 4-206, 207)",,126.95360221184684,37.5517906144466,14132410.3525946,4516300.923124422,
SFT0019089,의원,지엠비뇨기과의원,"서울특별시 마포구 월드컵로14길 5, 3층 (서교동)",,126.91077924443857,37.55603256275974,14127643.321668454,4516896.563045441,
SFT0019090,치과의원,김훈재치과의원,"서울특별시 마포구 양화로 127, 5층 (서교동)",,126.9220465321,37.5551252832,14128897.590393545,4516769.163092315,
SFT0019091,치과의원,누리꿈서울치과의원,서울특별시 마포구 월드컵북로 396 (상암동),,126.890322604776,37.5794419093126,14125366.098957876,4520184.233754752,
SFT0019092,치과의원,늘봄서울치과의원,서울특별시 마포구 월드컵북로38길 14  (중동),,126.90374811868335,37.57050403804929,14126860.620329678,4518928.853469261,
SFT0019093,치과의원,더바른이치과교정과치과의원,"서울특별시 마포구 신촌로 176 (대흥동, 중앙빌딩 7층)",,126.9451285623073,37.55647219293112,14131467.070242697,4516958.29635443,
SFT0019094,치과의원,덴티엔치과교정과치과의원,"서울특별시 마포구 상암산로 76, YTN 뉴스퀘어 지하1층 (상암동)",,126.8923153370612,37.57919452912927,14125587.92890115,4520149.485623061,
SFT0019095,치과의원,동교치과의원,서울특별시 마포구 신촌로 14  (동교동),,126.92791173434173,37.558012247442655,14129550.501720496,4517174.555224108,
SFT0019096,치과의원,디엠씨서울치과의원,"서울특별시 마포구 월드컵북로 361, 301호,306호 (상암동, DMC이안상암2단지)",,126.89110105046977,37.5772502902927,14125452.755136115,4519876.393122453,
SFT0019097,치과의원,디자인스타치과의원,"서울특별시 마포구 마포대로 92, B동 5층 1호 (도화동)",,126.95119086742255,37.54301395428768,14132141.922961162,4515068.642048871,
SFT0019098,치과의원,딜라이트치과의원,"서울특별시 마포구 월드컵로3길 14, 306~307호 (합정동, 마포한강2차푸르지오)",,126.91223845855774,37.55094488162481,14127805.760641158,4516182.172258189,
SFT0019099,치과의원,라이크치과의원,"서울특별시 마포구 신촌로 104, 3층 (노고산동)",,126.93754250590001,37.55470922620002,14130622.594306309,4516710.740998387,
SFT0019100,치과의원,로스윌최병택치과의원,"서울특별시 마포구 마포대로 68, 406-1호 (도화동, 마포아크로타워)",,126.94897423540985,37.541333539222876,14131895.168614231,4514832.721047814,
SFT0019101,치과의원,리틀스마일소아치과의원,"서울특별시 마포구 마포대로 173-14, 마포 센텀 슬로우스퀘어 2층 208,209호 (아현동)",,126.953625787034,37.55099812968,14132412.97697243,4516189.648873618,
SFT0019102,치과의원,마인치과의원,"서울특별시 마포구 신촌로4길 8, 2층 (동교동)",,126.92854017858906,37.55771705612592,14129620.4598141,4517133.103266877,
SFT0019103,치과의원,마포리빙웰치과의원,서울특별시 마포구 마포대로 33,,126.94562584114591,37.54015710775699,14131522.427069794,4514667.559726915,
SFT0019104,치과의원,마포사과나무치과의원,"서울특별시 마포구 월드컵로 74, 4층 (서교동, 원천빌딩)",,126.9107284665,37.5557804024,14127637.66909419,4516861.154599523,
SFT0019105,치과의원,마포올치과의원,"서울특별시 마포구 삼개로 24, A동 4층 (도화동, 용현빌딩)",,126.94724629176623,37.53808512419295,14131702.814807704,4514376.6765791895,
SFT0019106,치과의원,메이트치과의원,서울특별시 마포구 토정로 295 3층 (용강동),,126.94223506439864,37.54119700161272,14131144.967528895,4514813.552154462,
SFT0019107,치과의원,모던치과의원,서울특별시 마포구 동교로 203,,126.92307199811643,37.558315467758476,14129011.74474832,4517217.134816803,
SFT0019126,의원,이브산부인과의원,"서울특별시 마포구 서강로 144, 4층 5호 (노고산동)",,126.93660817652586,37.55448460507305,14130518.585236145,4516679.200175452,
SFT0019127,의원,이승호이비인후과의원,"서울특별시 마포구 월드컵로 111, 2층 (망원동, 풍성빌딩)",,126.90782948523733,37.55821065435218,14127314.95597621,4517202.41641616,
SFT0019128,의원,이에스(ES)해바라기의원,"서울특별시 마포구 마포대로 68, 3,5층 306,307,506A,507A,507B호 (도화동, 마포아크로타워)",,126.948961312534,37.5413315500222,14131893.730046272,4514832.441778168,
SFT0019129,의원,이종범정형외과의원,"서울특별시 마포구 삼개로 24, 2층 (도화동, 용현빌딩)",,126.9472462918,37.5380851242,14131702.814811463,4514376.676580177,
SFT0019130,의원,이종훈외과의원,"서울특별시 마포구 신촌로 170, 상가301호 (대흥동, 이대역 푸르지오 시티)",,126.9447716197487,37.55650428681291,14131427.335578833,4516962.803023719,
SFT0019131,의원,이지함피부과의원,"서울특별시 마포구 신촌로 170, 201~203호 (대흥동, 이대역푸르지오시티)",,126.94412437788071,37.556356211612346,14131355.284943668,4516942.0101061165,
SFT0019132,의원,임선영산부인과의원,"서울특별시 마포구 양화로 157, 201-B호 (동교동, 파라다이스텔)",,126.9229503075,37.5566864039,14128998.198210865,4516988.376205193,
SFT0019133,의원,재단법인한국산업보건연구재단서울디엠씨건강의원,"서울특별시 마포구 성암로 179, 한샘상암 15층 (상암동)",,126.8987633275,37.5761512717,14126305.715913437,4519722.025461055,
SFT0019134,의원,정다운소아청소년과의원,"서울특별시 마포구 대흥로24길 24, 마포프레스티지자이 상가A동 2층 202호 (염리동)",,126.947661522663,37.5539739756082,14131749.038099693,4516607.499021137,
SFT0019143,의원,푸른이비인후과의원,"서울특별시 마포구 독막로 2, 2층 (합정동)",,126.91362192569392,37.548520451926635,14127959.767498286,4515841.761192737,
SFT0019144,의원,풀페이스의원,"서울특별시 마포구 양화로 164, 유림빌딩 10층 (동교동)",,126.9240550467758,37.55653935606282,14129121.177224508,4516967.727500724,
SFT0019145,의원,프라나이비인후과의원,"서울특별시 마포구 대흥로24길 24, 지2층 213~215호 (염리동)",,126.947661522663,37.5539739756082,14131749.038099693,4516607.499021137,
SFT0019146,의원,프렌닥터연세내과의원,"서울특별시 마포구 양화로 191, 1~2층 (동교동)",,126.9257641313,37.5586776082,14129311.431643464,4517267.988471851,
SFT0019147,의원,프리미엘의원,"서울특별시 마포구 월드컵북로54길 25, 상암DMC푸르지오시티, S-City 203~204호 (상암동)",,126.8889826822696,37.58209264056571,14125216.93946676,4520556.574619372,
SFT0019148,의원,필그린피부과의원,"서울특별시 마포구 마포대로24길 56, 2층 (아현동, 보령빌딩)",,126.96205821044197,37.55147299022263,14133351.670052359,4516256.324778002,
SFT0019149,의원,필라인의원,"서울특별시 마포구 서강로 132, BS타워 2,3층 (노고산동)",,126.93546993442344,37.55384675786389,14130391.876704905,4516589.635539478,
SFT0019150,의원,한빛가정의원,"서울특별시 마포구 신촌로34길 37, 2층 (아현동)",,126.95504290047099,37.5556398080229,14132570.729318632,4516841.4123399425,
SFT0019151,의원,한사랑의원,"서울특별시 마포구 만리재로 133, 3층 (아현동)",,126.9621386378,37.551659886,14133360.623184899,4516282.567220124,
SFT0019152,의원,한사랑의원,서울특별시 마포구 월드컵로 123,,126.90703603958045,37.55916867495887,14127226.630009713,4517336.947029566,
SFT0019153,의원,한솔마취통증의학과의원,"서울특별시 마포구 월드컵로14길 5, 4층 (서교동)",,126.91072045122547,37.55598566608754,14127636.776837911,4516889.977789258,
SFT0019154,의원,한스비뇨기과의원,"서울특별시 마포구 만리재로 14, 3층 (공덕동, 르네상스타워)",,126.9528365624,37.5439944436,14132325.120888049,4515206.299793643,
SFT0019155,의원,해솔정신건강의학과의원,"서울특별시 마포구 백범로 13, 신촌르메이에르타운II 3층 303호 (노고산동)",,126.9374982905,37.553447806,14130617.672270495,4516533.616277513,
SFT0019156,의원,허비뇨기과의원,"서울특별시 마포구 양화로 133, 서교타워 2층 201(일부)호 (서교동)",,126.920982708821,37.55523107395,14128779.166127833,4516784.01812125,
SFT0019157,의원,허의원,"서울특별시 마포구 신촌로 120, 2, 3층 (노고산동)",,126.939126315547,37.55547409452782,14130798.903189724,4516818.142902142,
SFT0019158,의원,현대제일의원,"서울특별시 마포구 도화4길 73, 207호 (도화동, 현대홈타운상가)",,126.95213434200103,37.537935838578704,14132246.950070813,4514355.718873085,
SFT0019159,의원,현대중앙의원,서울특별시 마포구 효창원로 253-2 (공덕동),,126.96339793353587,37.54991954939482,14133500.807344975,4516038.205323214,
SFT0019160,치과의원,목적이이끄는치과의원,"서울특별시 마포구 서강로 60, 미지빌딩 6층 (창전동)",,126.9321837457,37.54852542319999,14130026.05984956,4515842.459191524,
SFT0019161,치과의원,미서울치과의원,"서울특별시 마포구 월드컵로 205, 상가동 209호 (성산동, 도시개발공사성산아파트)",,126.90149939313201,37.565046120259034,14126610.293346372,4518162.328642474,
SFT0019162,치과의원,미소가온치과의원,"서울특별시 마포구 백범로 1, 2층 (노고산동)",,126.937184557559,37.554556046874,14130582.747679256,4516689.23187153,
SFT0019163,치과의원,미소를만드는치과의원,"서울특별시 마포구 어울마당로5길 28, 1층 (서교동)",,126.9191461776399,37.54964166161089,14128574.724411927,4515999.187430671,
SFT0019164,치과의원,미소치과의원,"서울특별시 마포구 망원로 68, 2층 (망원동)",,126.90436641369999,37.557098084699994,14126929.448616093,4517046.185331857,
SFT0019165,치과의원,미치과의원,"서울특별시 마포구 월드컵로 155, 3층 (망원동)",,126.9049313795,37.56138007749999,14126992.340321263,4517647.491151315,
SFT0019166,치과의원,민치과의원,"서울특별시 마포구 월드컵로 42, 3층 (서교동, 대원빌딩)",,126.91242024507288,37.55302461698939,14127825.997023456,4516474.194057867,
SFT0019167,치과의원,바로심는치과의원,"서울특별시 마포구 서강로 133, 5층 (노고산동)",,126.9352657374,37.5544124726,14130369.145596232,4516669.071506518,
SFT0019168,치과의원,바른약속치과의원,"서울특별시 마포구 월드컵로 125, 영보빌딩 3층 (망원동)",,126.9067539899,37.559262387,14127195.232382907,4517350.106691548,
SFT0019169,치과의원,바른정치과의원,"서울특별시 마포구 월드컵북로6길 3, 3층 301호 (연남동, 이노베이스빌딩)",,126.9189426004,37.5578910567,14128552.062297245,4517157.5371105615,
SFT0019170,치과의원,박병덕치과의원,서울특별시 마포구 서강로 142,,126.93635332763068,37.5543736041764,14130490.215586906,4516663.613699726,
SFT0019171,치과의원,박재필치과의원,"서울특별시 마포구 마포대로4길 18, 2층 (도화동)",,126.9466710606,37.5387083579,14131638.78036719,4514464.170719803,
SFT0019172,치과의원,밝은미소치과의원,"서울특별시 마포구 마포대로11길 7-18, 2층 (공덕동)",,126.9531021100012,37.54814319849328,14132354.681511799,4515788.792517357,
SFT0019173,치과의원,백명환치과의원,"서울특별시 마포구 굴레방로9길 2, 2층 (아현동)",,126.95556726211238,37.55692663086851,14132629.100989543,4517022.109367571,
SFT0019174,치과의원,부치과의원,서울특별시 마포구 백범로 127 (염리동),,126.9454569245,37.546553707,14131503.623354783,4515565.6211933065,
SFT0019175,치과의원,브라이튼치과의원,"서울특별시 마포구 마포대로 44, 3층 (도화동, 진도빌딩)",,126.94710596987275,37.53997039253161,14131687.194245974,4514641.346681574,
SFT0019176,치과의원,사랑의두레치과의원,"서울특별시 마포구 성미산로 105, 3층 (연남동)",,126.9187344471,37.5619742308,14128528.89077788,4517730.9288273025,
SFT0019177,치과의원,사랑이아프니치과의원,"서울특별시 마포구 월드컵북로 15, 아도디아빌딩 2층 (서교동)",,126.9199494121,37.5562086809,14128664.140063012,4516921.293687363,
SFT0019214,의원,홍대고운세상피부과의원,"서울특별시 마포구 월드컵로1길 14, 딜라이트스퀘어 A동 2층 202, 203호 (합정동, 마포 한강 푸르지오)",,126.91206159593335,37.55005105713028,14127786.072383871,4516056.670218319,
SFT0019215,의원,홍대성모정신건강의학과의원,"서울특별시 마포구 양화로 166, 미래프라자 12(일부)층 (동교동)",,126.924166543608,37.556743503599,14129133.588995092,4516996.394251891,
SFT0019216,의원,홍대예쁨주의쁨의원,"서울특별시 마포구 양화로 144, MERCURE 앰배서더 HOTEL 홍대 3층 (동교동)",,126.922393972623,37.5553436435547,14128936.267295647,4516799.825053189,
SFT0019217,의원,홍승현성형외과의원,"서울특별시 마포구 신촌로 180, 3층 (대흥동)",,126.945485886,37.5565079478,14131506.847334215,4516963.317104946,
SFT0019218,의원,홍익산부인과의원,"서울특별시 마포구 독막로 64, 1층,2(일부)층 (상수동)",,126.9204293602,37.5476098808,14128717.567641115,4515713.91192853,
SFT0019222,의원,힐스의원,"서울특별시 마포구 양화로8길 5, 소천빌딩 5층 (서교동)",,126.915945121451,37.550522404558,14128218.384466978,4516122.85199827,
SFT0019223,치과의원,사랑치과의원,"서울특별시 마포구 독막로 176, 2층 (구수동)",,126.9330449211,37.5472537046,14130121.925456572,4515663.90322867,
SFT0019224,치과의원,사랑해요치과의원,"서울특별시 마포구 독막로 168, 2층 (창전동, 한도빌딩)",,126.9322346956,37.5472460344,14130031.731566485,4515662.826301595,
SFT0019225,치과의원,삼성탑치과의원,"서울특별시 마포구 만리재로 15, 3층 304호 (공덕동, 제일빌딩)",,126.9527682959,37.5445854719,14132317.521496033,4515289.279260508,
SFT0019226,치과의원,삼창치과의원,"서울특별시 마포구 마포대로 204, 205~206호 (아현동, SK허브블루)",,126.95653436680001,37.5520219592,14132736.758590914,4516333.40689195,
SFT0019227,치과의원,상아치과의원,서울특별시 마포구 도화길 32  (도화동),,126.94968054752488,37.54097345439356,14131973.794919217,4514782.167816837,
SFT0019228,치과의원,상암지앤미치과의원,"서울특별시 마포구 매봉산로 45, 지하1층 (상암동)",,126.8909924355,37.5765119574,14125440.664172988,4519772.686962455,
SFT0019229,치과의원,새소망치과의원,"서울특별시 마포구 백범로 99, 승행빌딩 3층 (대흥동)",,126.9425364264,37.5478209282,14131178.514993427,4515743.5440214025,
SFT0019230,치과의원,서강박치과의원,"서울특별시 마포구 토정로 195, 3~4층 (구수동)",,126.93237700102628,37.545047678619746,14130047.572934074,4515354.172833481,
SFT0019231,치과의원,서강봄치과의원,"서울특별시 마포구 창전로 35, 2층 (창전동, 일성빌딩)",,126.9317879545301,37.545735703070896,14129982.000578066,4515450.771838802,
SFT0019232,치과의원,서강플러스치과의원,서울특별시 마포구 독막로 86,,126.9227755292267,37.54750698838924,14128978.741982479,4515699.465358462,
SFT0019233,치과의원,서교치과의원,"서울특별시 마포구 월드컵북로 43, 2층 (서교동)",,126.91780281121193,37.55802713676814,14128425.181545217,4517176.646047692,
SFT0019234,치과의원,서교탑치과의원,"서울특별시 마포구 양화로 133, 서교타워 2층 (서교동)",,126.92098259393505,37.55523269567481,14128779.153338788,4516784.245842356,
SFT0019235,치과의원,서명원치과의원,"서울특별시 마포구 도화길 31-1, 3층 (도화동)",,126.9493578803,37.54104132850001,14131937.875768047,4514791.696817718,
SFT0019236,치과의원,서왕연치과의원,"서울특별시 마포구 마포대로8길 9, 3층 (공덕동)",,126.95394047064872,37.546622665599344,14132448.00739218,4515575.303173378,
SFT0019237,치과의원,서울M치과의원,"서울특별시 마포구 마포대로7길 11, 4층 (공덕동, 용진빌딩)",,126.95206078212948,37.546794436459166,14132238.76142337,4515599.4203210985,
SFT0019238,치과의원,서울권치과의원,"서울특별시 마포구 월드컵로13길 37, 2층 (망원동)",,126.90813955616649,37.55536756186482,14127349.472914152,4516803.183645834,
SFT0019239,치과의원,서울김진철치과의원,"서울특별시 마포구 월드컵북로54길 25, 상암DMC푸르지오시티, S-City 2층 201, 202호 (상암동)",,126.8889826823,37.5820926406,14125216.939470146,4520556.574624191,
SFT0019240,치과의원,서울디엠씨치과의원,"서울특별시 마포구 성암로 179, 한샘상암 15층 2호 (상암동)",,126.89876332752651,37.5761512717257,14126305.71591639,4519722.025464664,
SFT0019328,치과의원,시그니처스마일치과의원,"서울특별시 마포구 마포대로 208, 효성인텔리안 204호 (아현동)",,126.95685095505642,37.552512218290104,14132772.001034409,4516402.245882996,
SFT0019329,치과의원,신수치과의원,서울특별시 마포구 토정로 219 (신수동),,126.9353100824,37.5450060739,14130374.082059052,4515348.331536898,
SFT0019330,치과의원,신연세치과의원,"서울특별시 마포구 서강로 82, 7층 (창전동)",,126.9326858174079,37.550295441569,14130081.950216426,4516090.984126853,
SFT0019331,치과의원,신용준치과의원,"서울특별시 마포구 망원로 79, 2층 (망원동)",,126.905610669,37.5576360802,14127067.958482506,4517121.73232893,
SFT0019332,치과의원,신촌맑음구강내과치과의원,"서울특별시 마포구 신촌로 116, 4층 (노고산동)",,126.938575952772,37.5553118148824,14130737.63708586,4516795.355694603,
SFT0019333,치과의원,신촌유디치과의원,"서울특별시 마포구 신촌로 150, 201호,205호,206호,207호 (노고산동, 신촌포스빌)",,126.9421225145,37.5562648798,14131132.438531488,4516929.185191537,
SFT0019334,치과의원,신촌유앤아이치과의원,"서울특별시 마포구 신촌로 82, 3층 (노고산동)",,126.9348074782,37.5556123493,14130318.132415438,4516837.556590975,
SFT0019335,치과의원,심재창치과의원,"서울특별시 마포구 월드컵로 87, 302호 (망원동)",,126.90933460862216,37.55647473080732,14127482.50554499,4516958.652726602,
SFT0019336,치과의원,아크로치과의원,"서울특별시 마포구 마포대로 68, 401호,411호 (도화동, 마포아크로타워)",,126.9489878110087,37.54133714923192,14131896.679842982,4514833.227867462,
SFT0019337,치과의원,아프지않은행복치과의원,"서울특별시 마포구 독막로18길 5, 203~205호 (상수동, 두산위브아아파트상가)",,126.92434616120609,37.54754046094771,14129153.583934648,4515704.165058202,
SFT0019338,치과의원,아현연세치과의원,"서울특별시 마포구 신촌로 270, 3층 (아현동)",,126.95571201169999,37.55712130069999,14132645.214439929,4517049.445383336,
SFT0019339,치과의원,악어새의정원치과의원,"서울특별시 마포구 월드컵북로 434, 204호 (상암동, 상암IT타워)",,126.8860489035,37.5816213285,14124890.352708029,4520490.369752164,
SFT0019340,치과의원,안치과의원,"서울특별시 마포구 신촌로 162, 302호 (대흥동, 캠프21오피스텔)",,126.943700000000007,37.556430555555558,14131308.043414084,4516952.449576838,
SFT0019341,치과의원,앙쥬소아치과치과의원,"서울특별시 마포구 큰우물로 53, 마포 네이버타운 201호 (염리동)",,126.9446317476039,37.542289794676705,14131411.765082898,4514966.973384051,
SFT0019342,치과의원,야베스드림치과의원,"서울특별시 마포구 만리재로 14, 3층 (공덕동, 한국사회복지회관 르네상스타워)",,126.9528365624,37.5439944436,14132325.120888049,4515206.299793643,
SFT0019343,치과의원,양병근치과의원,"서울특별시 마포구 월드컵북로 236, 4층 (중동)",,126.903430388,37.57029871699999,14126825.2507118,4518900.016605613,
SFT0019344,치과의원,어린왕자치과의원,"서울특별시 마포구 월드컵로 240, 지하1층 1호 (성산동, 서울월드컵경기장)",,126.8978792950987,37.56780327648614,14126207.305876682,4518549.544145885,
SFT0019396,치과의원,에버그린치과의원,서울특별시 마포구 월드컵로 102 (성산동),,126.90884405968188,37.55779699978731,14127427.89788675,4517144.329262557,
SFT0019397,치과의원,에이스치과의원,"서울특별시 마포구 마포대로 127, 211호 (공덕동, 풍림VIP텔)",,126.95217547435627,37.54618946530991,14132251.528903652,4515514.480790649,
SFT0019398,치과의원,엠와이치과의원,"서울특별시 마포구 월드컵북로 396, B1층 1067호,1068호,1069호 (상암동, 누리꿈스퀘어)",,126.8903509600415,37.579224548492654,14125369.255451592,4520153.702271523,
SFT0019399,치과의원,연세MY바른이치과의원,"서울특별시 마포구 양화로18길 3, 4층 (동교동, 삼양세븐스프링스)",,126.9245786738111,37.55702485433141,14129179.46711944,4517035.902138502,
SFT0019400,치과의원,연세가은치과의원,"서울특별시 마포구 마포대로 109, 3층 (공덕동, 롯데캐슬프레지던트)",,126.95065096592467,37.544913014124866,14132081.821401339,4515335.265969842,
SFT0019401,치과의원,연세나란이치과의원,"서울특별시 마포구 마포대로 180, 601호 (공덕동)",,126.95563561679525,37.55027775727518,14132636.710198034,4516088.50107938,
SFT0019402,치과의원,연세라임치과의원,"서울특별시 마포구 서강로 137, 203호 (노고산동, 까사빌)",,126.93575096474582,37.55470843861354,14130423.16085729,4516710.630407,
SFT0019403,치과의원,연세바른생각치과의원,"서울특별시 마포구 월드컵북로 402, 케이지아이티센터 2층 207,208호 (상암동)",,126.8889811024,37.5801068499,14125216.76359648,4520277.634868566,
SFT0019404,치과의원,연세바른치과의원,"서울특별시 마포구 월드컵북로 230, 306호 (중동)",,126.90383356849009,37.57014047094452,14126870.132558653,4518877.791369565,
SFT0019405,치과의원,연세봄치과의원,서울특별시 마포구 큰우물로 49 (염리동),,126.94413038423598,37.54261790170633,14131355.953568077,4515013.037973281,
SFT0019406,치과의원,연세수치과의원,"서울특별시 마포구 신촌로 174, 5층 (대흥동)",,126.9449969863,37.5564860972,14131452.423268564,4516960.248811734,
SFT0019407,치과의원,연세스마일치과의원,"서울특별시 마포구 도화길 43, 403호,404호 (도화동, 나눔빌딩)",,126.95031355211484,37.541907158675684,14132044.26066784,4514913.253455475,
SFT0019408,치과의원,연세여우치과의원,"서울특별시 마포구 양화로 165, 상진빌딩 6층 (동교동)",,126.92265716219583,37.55561222338903,14128965.565424876,4516837.538910585,
SFT0019409,치과의원,연세우리아이치과의원,"서울특별시 마포구 삼개로 27, 3층 (도화동)",,126.947581308,37.5379411133,14131740.108644255,4514356.459372781,
SFT0019410,치과의원,연세웨스턴치과의원,"서울특별시 마포구 마포대로 143, 213호,214호,215호 (공덕동, 파크팰리스Ⅱ )",,126.9530923902,37.5474543819,14132353.599508477,4515692.0791719165,
SFT0019411,치과의원,연세이안치과의원,"서울특별시 마포구 월드컵로 80, 6층 (서교동, 서교양경회관)",,126.91041240099344,37.556165626794865,14127602.484842941,4516915.247992092,
SFT0019412,치과의원,연세인스타일치과의원,"서울특별시 마포구 양화로 152, 3~4층 (동교동)",,126.922892344,37.5558250126,14128991.74574356,4516867.418770688,
SFT0019417,치과의원,조한준치과의원,"서울특별시 마포구 만리재로 15, 204호 (공덕동, 제일빌딩)",,126.9527682959,37.54458547189999,14132317.521496033,4515289.279260503,
SFT0019418,치과의원,지앤미치과의원,"서울특별시 마포구 성암로 189, 206호 (상암동, 중소기업DMC타워)",,126.89789761839905,37.57675599415053,14126209.345617147,4519806.964224844,
SFT0019419,치과의원,지윤섭치과의원,"서울특별시 마포구 신촌로 190, 대연빌딩 3층 (염리동)",,126.94671813580456,37.55660972108474,14131644.020754991,4516977.608270293,
SFT0019420,치과의원,참부부치과의원,"서울특별시 마포구 서강로 131, 301호 (노고산동)",,126.93506776558651,37.55430801641211,14130347.107474765,4516654.404036419,
SFT0019421,치과의원,채림치과의원,"서울특별시 마포구 신촌로 84, 3층 (노고산동)",,126.9349569205,37.5555511639,14130334.768256176,4516828.964953147,
SFT0019422,치과의원,청다민치과의원,"서울특별시 마포구 월드컵북로 400, 서울산업진흥원 지하1층 (상암동)",,126.88995517266436,37.58044591231993,14125325.196602307,4520325.261711926,
SFT0019423,치과의원,친절한임치과의원,"서울특별시 마포구 마포대로 195  (아현동, 마포 래미안 푸르지오)",,126.95363832842034,37.551941995552156,14132414.37307317,4516322.178959839,
SFT0019424,치과의원,크리스마스치과의원,"서울특별시 마포구 서강로 106, 3층 (신수동)",,126.9335066235,37.5523428041,14130173.321932638,4516378.45779369,
SFT0019425,치과의원,키즈앤드림치과의원,"서울특별시 마포구 백범로 202, 214호,215호 (신공덕동, 마포케이씨씨웰츠타워)",,126.95250808389618,37.54284872573369,14132288.554828268,4515045.444636051,
SFT0019426,치과의원,토마스케네디치과의원,"서울특별시 마포구 연남로 42, 상가비동 307호,308호 (연남동, 코오롱하늘채아파트)",,126.92154475187913,37.56308615916397,14128841.732474867,4517887.080077913,
SFT0019427,치과의원,트라팰리스치과의원,"서울특별시 마포구 마포대로 53, 202호 (도화동, 마포트라팰리스)",,126.94705383730266,37.54143315385923,14131681.390874818,4514846.70624473,
SFT0019428,치과의원,튼튼치과의원,"서울특별시 마포구 굴레방로 27, 3층 (아현동, 보성상가)",,126.9553963725274,37.556544954520454,14132610.077647962,4516968.51364481,
SFT0019429,치과의원,퍼플라인치과의원,"서울특별시 마포구 양화로 68, 6층 (서교동, 한동빌딩)",,126.91609401135505,37.55075676997308,14128234.958815282,4516155.759346116,
SFT0019458,치과의원,연세조은치과의원,"서울특별시 마포구 포은로 78, 2층 (망원동)",,126.905616666666660,37.553986111111108,14127068.626139704,4516609.203048651,
SFT0019459,치과의원,연세파미에치과의원,"서울특별시 마포구 양화로 151, 4층 (동교동, 옥도빌딩)",,126.9223667575677,37.55626795887799,14128933.23772955,4516929.617558835,
SFT0019460,치과의원,연세포시즌치과의원,"서울특별시 마포구 신촌로 170, 302호,303호 (대흥동, 이대역푸르지오시티)",,126.9443723628,37.5563488529,14131382.890498606,4516940.976786969,
SFT0019461,치과의원,연세하늘빛치과의원,"서울특별시 마포구 동교로41길 10, 2층 (연남동)",,126.924166324,37.56287884100001,14129133.564548442,4517857.965623989,
SFT0019462,치과의원,연세하늘치과의원,"서울특별시 마포구 월드컵북로 502, 3층 305,306호 (상암동, 월드컵파크프라자)",,126.87987103266403,37.58504618403541,14124202.635272382,4520971.466291669,
SFT0019463,치과의원,연세행복치과의원,"서울특별시 마포구 만리재로 27, 7층 (신공덕동, 우대메디칼)",,126.954279984,37.5447302267,14132485.801845562,4515309.602712708,
SFT0019464,치과의원,연세휴치과의원,"서울특별시 마포구 마포대로24길 56, 보령빌딩 602호 (아현동)",,126.96190330792645,37.55154448253284,14133334.426383208,4516266.363160821,
SFT0019465,치과의원,예본치과의원,서울특별시 마포구 월드컵북로2길 57  (동교동),,126.92335354208221,37.55748674391518,14129043.086079227,4517100.762009859,
SFT0019466,치과의원,예치과의원,"서울특별시 마포구 월드컵북로 233, 제1상가동 224호 (성산동, 성산시영아파트)",,126.90313788926814,37.56972507773318,14126792.68990191,4518819.4507266,
SFT0019467,치과의원,오름치과의원,"서울특별시 마포구 월드컵로 79, 4층 (망원동, 유용빌딩)",,126.90983646220002,37.55594190419998,14127538.37162973,4516883.832724973,
SFT0019468,치과의원,요셉치과의원,"서울특별시 마포구 큰우물로 52, 2층 (용강동, 세일상가)",,126.94429699049999,37.542051773400004,14131374.500092551,4514933.5565117495,
SFT0019469,치과의원,원치과의원,"서울특별시 마포구 신촌로 266, 2층 (아현동)",,126.95514162910174,37.557081441467766,14132581.719739534,4517043.848246257,
SFT0019470,치과의원,유니치과의원,"서울특별시 마포구 백범로 199, (신공덕동)",,126.9528866617,37.543500716,14132330.697916616,4515136.981700146,
SFT0019471,치과의원,유디마포치과의원,"서울특별시 마포구 마포대로 53, 210호,211호,212호 (도화동, 마포트라팰리스)",,126.94724982374242,37.54131834351465,14131703.207985494,4514830.5876784995,
SFT0019472,치과의원,유디치과의원,"서울특별시 마포구 양화로 73, 4층 (서교동, 체리스빌딩)",,126.91593164076836,37.55141973530145,14128216.883804252,4516248.847150873,
SFT0019473,치과의원,은혜치과의원,"서울특별시 마포구 만리재로 133, 4층 (아현동)",,126.96215318303615,37.5516388042441,14133362.24235318,4516279.607081685,
SFT0019474,치과의원,포도나무치과의원,"서울특별시 마포구 월드컵북로 192, 3,4층 (성산동)",,126.9077069692,37.568428067700005,14127301.317553319,4518637.29192533,
SFT0019475,치과의원,푸른치과의원,"서울특별시 마포구 고산길 160, 2층 (대흥동)",,126.94560974679999,37.55426271910001,14131520.635455402,4516648.043510378,
SFT0019476,치과의원,프라미스치과의원,서울특별시 마포구 마포대로 143 (공덕동),,126.95323371655991,37.5476170733905,14132369.331886899,4515714.921802228,
SFT0019477,치과의원,프라임치과의원,"서울특별시 마포구 월드컵로 82, 3층 (서교동, 호원빌딩)",,126.91025843684909,37.55620515145693,14127585.345632793,4516920.7980797365,
SFT0019478,치과의원,하이치과의원,"서울특별시 마포구 창전로 60, 3층 (구수동, 서강빌딩)",,126.9328950608555,37.54779782269741,14130105.243090464,4515740.29989112,
SFT0019479,치과의원,하치과의원,"서울특별시 마포구 월드컵북로 15, 아도디아빌딩 3층 301호 (서교동)",,126.9199494121,37.5562086809,14128664.140063012,4516921.293687363,
SFT0019480,치과의원,한동후치과의원,"서울특별시 마포구 마포대로 190, 2층 3층 (공덕동)",,126.955790712131,37.5509175098526,14132653.975331834,4516178.3289609505,
SFT0019481,치과의원,한마음치과의원,"서울특별시 마포구 포은로 64, 2층 (망원동)",,126.90654012889597,37.55289756854342,14127171.425484838,4516456.3545757355,
SFT0019482,치과의원,한무현치과의원,"서울특별시 마포구 큰우물로 75, 성지빌딩 206호 (도화동)",,126.94629939228008,37.541267447363445,14131597.406439073,4514823.442224183,
SFT0019483,치과의원,한사랑치과의원,"서울특별시 마포구 월드컵로 75, 5층 (망원동)",,126.9101537214,37.5556322029,14127573.68876232,4516840.344429797,
SFT0019484,치과의원,한울치과의원,"서울특별시 마포구 월드컵로 196, 201호 (성산동, 대명비첸시티오피스텔)",,126.9027459566397,37.56479454326806,14126749.060161289,4518126.9978393195,
SFT0019485,치과의원,함께하는치과의원,"서울특별시 마포구 망원로11길 50, 준빌딩 1층 (망원동)",,126.90597453960252,37.5598816545837,14127108.464372694,4517437.068740059,
SFT0019486,치과의원,합정치과의원,서울특별시 마포구 독막로 10 (합정동),,126.9144986908,37.5484923179,14128057.368543442,4515837.810995116,
SFT0019487,치과의원,해미소치과의원,"서울특별시 마포구 백범로 178, A-205호 (공덕동, 마포신영지웰)",,126.9500846756812,37.54389240054957,14132018.782259794,4515191.973172461,
SFT0019488,치과의원,행복한문화공동체연치과의원,"서울특별시 마포구 서강대길 3, 502호 (신수동, 서강빌딩)",,126.93935869243315,37.54946662694975,14130824.771266362,4515974.61109719,
SFT0019489,치과의원,행복한미래치과의원,"서울특별시 마포구 큰우물로 53, 403호 (염리동, 마포네이버타운)",,126.94462400512808,37.542257743662,14131410.90319443,4514962.473592437,
SFT0019490,치과의원,행복한치과의원,"서울특별시 마포구 월드컵로13길 50, 2층 (망원동)",,126.90741966830336,37.55545349534251,14127269.3353638,4516815.25037452,
SFT0019508,치과의원,이경수치과의원,서울특별시 마포구 월드컵북로 233 (성산동),,126.90314245020151,37.56969985387559,14126793.197622692,4518815.908127259,
SFT0019509,치과의원,이사랑치과의원,"서울특별시 마포구 백범로 205, 105동 b 235호 (신공덕동, 펜트라우스)",,126.95346568960001,37.54402712920001,14132395.155007599,4515210.888784571,
SFT0019510,치과의원,이인규치과의원,"서울특별시 마포구 양화로 50, 203호 (합정동, (주)한국정보통신)",,126.91434961358341,37.54944360616346,14128040.773343602,4515971.378790139,
SFT0019511,치과의원,이한무치과의원,"서울특별시 마포구 신촌로 102-1, 3층 (노고산동)",,126.9373886641,37.5546226489,14130605.468715468,4516698.58398602,
SFT0019512,치과의원,일등치과의원,"서울특별시 마포구 월드컵로1길 14, 208호 (합정동, 마포한강푸르지오)",,126.9120615959,37.5500510571,14127786.072380157,4516056.670214067,
SFT0019513,치과의원,자이베스트치과의원,"서울특별시 마포구 대흥로24길 24, 마포프레스티지자이1단지 A동 2층 210~212호 (염리동)",,126.947661522663,37.5539739756082,14131749.038099693,4516607.499021137,
SFT0019514,치과의원,정성가득수치과의원,"서울특별시 마포구 마포대로24길 4, 101동 306~308호 (아현동, 공덕자이아파트)",,126.95789571307446,37.554152411648,14132888.30296498,4516632.554452505,
SFT0019515,치과의원,제영태치과의원,"서울특별시 마포구 새창로8길 72, 상가동 206호 (도화동, 현대홈타운)",,126.9516732033575,37.53916151511239,14132195.616351832,4514527.788727926,
SFT0019516,치과의원,조은이치과의원,"서울특별시 마포구 방울내로 79, 202호 (망원동, 이노프라자)",,126.904073853411,37.5607183227441,14126896.880953696,4517554.5609033005,
SFT0019525,치과의원,허우교치과의원,"서울특별시 마포구 월드컵로 111, 2층 (망원동)",,126.9078599481,37.558182059100005,14127318.34708657,4517198.400937455,
SFT0019526,치과의원,홍대미래치과의원,"서울특별시 마포구 양화로 166, 3층 (동교동, 미래프라자)",,126.9241680135153,37.55674485604516,14129133.752624424,4516996.584164987,
SFT0019527,치과의원,휴플러스치과의원,"서울특별시 마포구 마포대로 201, 207호 (아현동, 마포트라팰리스2차상가)",,126.95553032741363,37.552195024975894,14132624.989437684,4516357.707610252,
SFT0019528,보건소,마포구보건소,"서울특별시 마포구 월드컵로 212 (성산동, 마포구보건소)",,126.9018692987165,37.56693851924408,14126651.471047677,4518428.095944695,
SFT0019906,치과의원,서울제니스치과의원,"서울특별시 마포구 양화로 162, 9층 (동교동, 동교대아빌딩)",,126.9238695499175,37.55643111692955,14129100.527808696,4516952.528405722,
SFT0019907,치과의원,서울준현치과의원,"서울특별시 마포구 양화로 77, 송원빌딩 5층 (서교동)",,126.91636454290955,37.55171201982604,14128265.074250173,4516289.887455634,
SFT0019954,치과의원,서울청춘치과의원,"서울특별시 마포구 포은로 90, 2층 202호 (망원동)",,126.905299913634,37.5551101560175,14127033.365353402,4516767.038950545,
SFT0019955,치과의원,서울치과의원,"서울특별시 마포구 마포대로 179, (아현동)",,126.9548152293,37.5503346452,14132545.385079809,4516096.488701425,
SFT0019956,치과의원,서울탑치과의원,"서울특별시 마포구 마포대로 195, 4-221,222호 (아현동, 마포래미안푸르지오상가)",,126.95379619939985,37.55282503037345,14132431.947190221,4516446.169156744,
SFT0019957,치과의원,서울토렌스치과의원,"서울특별시 마포구 월드컵로 150, 2층 (성산동)",,126.9056104816,37.5613734144,14127067.937621232,4517646.55544779,
SFT0019958,치과의원,서울프리벤치과의원,"서울특별시 마포구 월드컵북로 402, 케이지아이티센터 318 319호 (상암동)",,126.88886877427859,37.58016737693277,14125204.259287205,4520286.136860965,
SFT0019959,치과의원,서울한결치과의원,"서울특별시 마포구 백범로25길 63, 상가동 203호 (염리동, 삼성래미안아파트)",,126.946778802082,37.5493387565751,14131650.774094103,4515956.657061319,
SFT0019960,치과의원,성산부부치과의원,"서울특별시 마포구 월드컵북로 185, (성산동)",,126.9079475767,37.5679092822,14127328.1018577,4518564.431893022,
SFT0019961,치과의원,성심치과의원,서울특별시 마포구 독막로 2 (합정동),,126.91364008235642,37.548477217866036,14127961.788688712,4515835.690854203,
SFT0019962,치과의원,성치과의원,"서울특별시 마포구 토정로 161, 2층 (하중동)",,126.92887746764833,37.545784441866026,14129658.006660428,4515457.614825837,
SFT0019963,치과의원,세란치과의원,"서울특별시 마포구 신촌로16길 4, 2층 (노고산동)",,126.93384404968052,37.555936311736836,14130210.884043233,4516883.047428999,
SFT0019964,치과의원,소명치과의원,"서울특별시 마포구 서강로 97, 408호 (창전동,삼성아파트상가)",,126.9323481453,37.551934895,14130044.360729318,4516321.181950911,
SFT0019965,치과의원,손창인치과의원,"서울특별시 마포구 대흥로 186-2, 3층 (대흥동)",,126.94608501727741,37.555722851281175,14131573.542322937,4516853.073268083,
SFT0019966,치과의원,손치과의원,"서울특별시 마포구 양화로 46-1, (합정동)",,126.9142487048,37.549389531,14128029.540229216,4515963.786197971,
SFT0019967,치과의원,순정치과의원,"서울특별시 마포구 대흥로24길 24, 마포프레스티지자이 a동 305호 (염리동)",,126.947661522663,37.5539739756082,14131749.038099693,4516607.499021137,
SFT0019968,치과의원,슈어란트치과의원,"서울특별시 마포구 새창로 11, 5층 (도화동)",,126.95134846920906,37.542393664927346,14132159.467111783,4514981.556226849,
SFT0019969,치과의원,스마일치과의원,"서울특별시 마포구 월드컵북로 224, 2층 203호,204호,205호 (성산동)",,126.90437845669427,37.56975493656878,14126930.789236082,4518823.64429335,
SFT0019970,치과의원,스마일플란트치과의원,"서울특별시 마포구 서강로 105, 화일빌딩 5층 (창전동)",,126.932819344843,37.5524749518968,14130096.814422509,4516397.0131626595,
SFT0021529,의원,베스트신경외과의원,"서울특별시 마포구 양화로 81, H 스퀘어 2층 (서교동)",,126.916683666284,37.5520255224142,14128300.598901715,4516333.907213665,
SFT0022431,병원,신촌연세병원,"서울특별시 마포구 서강로 110, 지2층~6층 (신수동)",,126.93372939201893,37.55257735393295,14130198.120410731,4516411.39184017,
SFT0023996,의원,연세외과의원,"서울특별시 마포구 마포대로16길 6, 1~2층 (공덕동)",,126.95623631308099,37.5508073035662,14132703.579402683,4516162.854803032,
SFT0028278,의원,내안애내과의원,"서울특별시 마포구 마포대로 68, 604~607호 (도화동, 마포아크로타워)",,126.9489593879,37.5413330809,14131893.515796997,4514832.656702537,
SFT0029181,의원,맑은빛성모안과의원,"서울특별시 마포구 월드컵로14길 5, 6층 (서교동)",,126.91072368506486,37.55601104938011,14127637.136827264,4516893.542124471,
SFT0029332,치과의원,상암하늘치과의원,"서울특별시 마포구 상암산로1길 69, 302호 (상암동, 상암프라자)",,126.88348456502021,37.58013688873653,14124604.891854236,4520281.854304011,
SFT0029484,의원,최근해산부인과의원,"서울특별시 마포구 와우산로 172, 1층 (동교동)",,126.9312625589,37.5559635297,14129923.51380406,4516886.869387135,
SFT0029829,의원,다이아비뇨의학과의원,"서울특별시 마포구 상암산로 76, YTN 뉴스퀘어 지하1층 일부호 (상암동)",,126.892314544858,37.5791943482019,14125587.840713495,4520149.460209234,
SFT0029832,의원,허동식유외과의원,"서울특별시 마포구 마포대로 68, 304호, 305호 (도화동, 마포아크로타워)",,126.948961312534,37.5413315500222,14131893.730046272,4514832.441778168,
SFT0030252,의원,이화더블유산부인과의원,"서울특별시 마포구 마포대로 208, 203호 (아현동, 효성인텔리안)",,126.9568509551,37.5525122183,14132772.001039257,4516402.245884386,
SFT0031292,의원,봄봄소아청소년과의원,"서울특별시 마포구 고산18길 13, 4층 401~403호 (대흥동)",,126.945514548429,37.5538253308679,14131510.03802122,4516586.626836799,
SFT0031809,의원,마포탑안과의원,"서울특별시 마포구 도화길 43, 나눔빌딩 305,306,307호 (도화동)",,126.95046297409559,37.54181712413571,14132060.89424665,4514900.613155787,
SFT0032142,의원,24시열린의원,"서울특별시 마포구 월드컵북로 396, 누리꿈스퀘어 지하층 B1095호 (상암동)",,126.8903224924,37.5794413686,14125366.086448237,4520184.157803709,
SFT0032143,의원,메세나연세소아청소년과의원,"서울특별시 마포구 양화로 45, 지하2층 (서교동, 메세나폴리스)",,126.91327460840243,37.55132407657668,14127921.104314256,4516235.415536573,
SFT0032151,의원,연세내과의원,"서울특별시 마포구 신촌로 270, 302호 (아현동, 수창빌딩)",,126.9557120117,37.5571213007,14132645.214439929,4517049.445383336,
SFT0032152,의원,연세봄이비인후과의원,"서울특별시 마포구 양화로 152, 4층 (동교동, 대화빌딩)",,126.922892344,37.5558250126,14128991.74574356,4516867.418770688,
SFT0033334,의원,공덕연세이비인후과의원,"서울특별시 마포구 마포대로 92, 효성해링턴 스퀘어 B동 5층 4호 (도화동)",,126.95133459795693,37.54284415897323,14132157.922971059,4515044.803482301,
SFT0034346,의원,다웰메디의원,"서울특별시 마포구 큰우물로 76, 고려빌딩 1층 103호 (도화동)",,126.9459453992,37.5408055559,14131558.000109654,4514758.596200978,
SFT0034347,의원,수이비인후과의원,"서울특별시 마포구 상암산로1길 73, 302호 (상암동, 월드프라자)",,126.8832173847643,37.580140225239745,14124575.149484197,4520282.322969406,
SFT0034428,의원,고은가정의학과의원,서울특별시 마포구 만리재로 27 (신공덕동),,126.954279984,37.5447302267,14132485.801845562,4515309.602712708,
SFT0034517,의원,합정고려의원,"서울특별시 마포구 망원로 69, 2층 (망원동)",,126.9045651984,37.5574153965,14126951.577227674,4517090.743173192,
SFT0034518,의원,연합메디의원,"서울특별시 마포구 백범로 90, 6층 (대흥동)",,126.941531533,37.5478420589,14131066.650771841,4515746.510880225,
SFT0034562,의원,앤의원,"서울특별시 마포구 만리재로 15, 403~406호 (공덕동, 제일빌딩)",,126.95276829588279,37.54458547188675,14132317.521494118,4515289.279258646,
SFT0034567,의원,연세정수영내과의원,"서울특별시 마포구 월드컵로 73, 4층 (망원동)",,126.9103576841,37.5554233266,14127596.393786227,4516811.014095756,
SFT0034577,의원,연세참가정의원,"서울특별시 마포구 월드컵북로 69, 2층 (성산동)",,126.91630216238367,37.55995418086778,14128258.130081797,4517447.25345452,
SFT0034914,치과의원,일진치과의원,"서울특별시 마포구 마포대로 45, 103호 (도화동, 일진빌딩)",,126.9463756111,37.5404741841,14131605.891079295,4514712.074386172,
SFT0035297,치과의원,연세통합치과의원,"서울특별시 마포구 백범로31길 8, 2층 210~211호 (공덕동, 공덕SK리더스뷰)",,126.94870244291,37.5452627685789,14131864.912811546,4515384.371484367,
SFT0035491,의원,연세소아청소년과의원,"서울특별시 마포구 만리재로 133, 5층 (아현동)",,126.96216677061398,37.55162439291904,14133363.754915426,4516277.583554457,
SFT0036684,의원,연세이비인후과의원,"서울특별시 마포구 월드컵북로38길 14, 4층 (중동, 오윤빌딩)",,126.9037741227,37.570594524,14126863.515083572,4518941.5620357385,
SFT0037110,의원,임비뇨기과의원,"서울특별시 마포구 신촌로 102-1, 2층 (노고산동)",,126.9373886641,37.5546226489,14130605.468715468,4516698.58398602,
SFT0037113,의원,정내과의원,서울특별시 마포구 망원로 82,,126.90591105300648,37.55739462193755,14127101.397077149,4517087.825943203,
SFT0037862,의원,더튼튼소아청소년과의원,"서울특별시 마포구 마포대로 68, 404, 408-1호 (도화동, 마포아크로타워)",,126.94895938790002,37.54133308090001,14131893.515796997,4514832.656702537,
SFT0037863,의원,아산편한내과의원,"서울특별시 마포구 신촌로 266, 3층 (아현동)",,126.955140384222,37.5570813508888,14132581.581160156,4517043.835526926,
SFT0042486,의원,샤인빔의원,"서울특별시 마포구 양화로 151, 6, 7층 (동교동)",,126.922368229397,37.5562674192411,14128933.401572837,4516929.541782469,
SFT0042886,의원,합정도로시산부인과의원,"서울특별시 마포구 월드컵로 29, 3층 (합정동, JH빌딩)",,126.9121317157,37.5520152851,14127793.878080588,4516332.469761383,
SFT0042974,의원,진오비산부인과의원,"서울특별시 마포구 신촌로 12, 동우빌딩 3,4층 (동교동)",,126.92769325816064,37.558087751303,14129526.181063265,4517185.157807574,
SFT0042975,의원,김도형내과의원,"서울특별시 마포구 월드컵로 29, 2층 (합정동)",,126.9121317157336,37.55201528506994,14127793.87808433,4516332.469757162,
SFT0042976,의원,연세유내과의원,"서울특별시 마포구 도화길 32, 삼성아파트 201,210호 (도화동)",,126.94959336167302,37.54085402134723,14131964.089434583,4514765.400359643,
SFT0043570,치과의원,신촌고운미소치과의원,"서울특별시 마포구 신촌로 92, 6층 (노고산동, 카리스빌딩)",,126.9356815527,37.5551767458,14130415.433943694,4516776.389415348,
SFT0044944,의원,대한의료영상의학과의원,"서울특별시 마포구 신촌로 102-1, 3, 4층 (노고산동)",,126.93738866411353,37.55462264891487,14130605.468716975,4516698.583988106,
SFT0045113,의원,독일하트의원,"서울특별시 마포구 마포대로 92, 효성해링턴 스퀘어 B동 3층 1호 (도화동)",,126.95133459795693,37.54284415897323,14132157.922971059,4515044.803482301,
SFT0045167,치과의원,연세안치과의원,"서울특별시 마포구 도화길 10, 3층 (도화동, 에벤에셀빌딩)",,126.94741838087518,37.53980475341647,14131721.971679682,4514618.092577003,
SFT0046146,의원,최호열내과의원,"서울특별시 마포구 백범로 127, 2층 (염리동)",,126.9454569245,37.546553707,14131503.623354783,4515565.6211933065,
SFT0048037,의원,연세더블유산부인과의원,"서울특별시 마포구 양화로 48, 강서정형외과 1층 (합정동)",,126.9143618235,37.549429257,14128042.132545298,4515969.364050502,
SFT0050003,의원,삼성푸른소아청소년과의원,"서울특별시 마포구 마포대로 201, 1층 (아현동, 트라팰리스2차, 110호, 111호 일부)",,126.95549764160532,37.55219816866527,14132621.35087015,4516358.14902624,
SFT0050006,의원,디엠씨(DMC)조은안과의원,"서울특별시 마포구 월드컵북로 402, 케이지아이티센터 315,323~326호 (상암동)",,126.88886875256037,37.58018179268915,14125204.256869543,4520288.161786148,
SFT0050462,의원,미소퀸산부인과의원,"서울특별시 마포구 도화길 10, 5층 (도화동, 에벤에셀)",,126.94741253959857,37.539807910477485,14131721.321431745,4514618.5357968705,
SFT0050464,의원,영재소아청소년과의원,"서울특별시 마포구 창전로 45, 103동 110호 (창전동, 서강한화오벨리스크)",,126.93224977364073,37.54701557860176,14130033.410046302,4515630.46942792,
SFT0051094,의원,연세김진민의원,"서울특별시 마포구 신촌로 78, 2층 (노고산동)",,126.9344859802,37.555709479,14130282.343421787,4516851.1955324765,
SFT0052030,의원,연세동안의원,"서울특별시 마포구 도화길 10, 4층 (도화동)",,126.94741253959857,37.539807910477485,14131721.321431745,4514618.5357968705,
SFT0052786,의원,이인화내과의원,"서울특별시 마포구 월드컵로 87, 303호 (망원동)",,126.9092427837,37.5564748397,14127472.283641411,4516958.668017471,
SFT0053208,의원,레몬산부인과의원,"서울특별시 마포구 양화로 162, 좋은사람들 빌딩 901호 (동교동)",,126.923871361997,37.5564298566954,14129100.729528464,4516952.351441961,
SFT0053426,의원,홍대비앤미의원,"서울특별시 마포구 양화로 125, 경남관광빌딩 6층 (서교동)",,126.920309389675,37.5547493986687,14128704.212583357,4516716.381941383,
SFT0055231,의원,혜당의원,"서울특별시 마포구 독막로 32, 2(일부)3(일부)층 (합정동)",,126.9167805681,37.54802903289999,14128311.38596253,4515772.763026877,
SFT0055232,의원,이진우의원,"서울특별시 마포구 월드컵북로38길 14, 4층 (중동)",,126.9037741226559,37.570594524003006,14126863.515078664,4518941.562036161,
SFT0056939,의원,성모탑정형외과의원,"서울특별시 마포구 큰우물로 76, 고려빌딩 1층 2호 (도화동)",,126.945946191673,37.5408050156165,14131558.088327346,4514758.52034955,
SFT0056940,의원,비앤씨피부과의원,"서울특별시 마포구 만리재로 39, 비앤씨피부과빌딩 2, 3층 201호, 301호 (신공덕동)",,126.955172073487,37.5451774643529,14132585.108792998,4515372.394752435,
SFT0057636,의원,박대양의원,서울특별시 마포구 망원로 75 (망원동),,126.90524539721925,37.55753823942971,14127027.29661387,4517107.993183866,
SFT0058145,의원,의료법인열린의료재단서교의원,"서울특별시 마포구 홍익로 25, 4층 (서교동)",,126.9219657992853,37.55440443184595,14128888.603257723,4516667.94244372,
SFT0058474,의원,누리꿈이비인후과의원,"서울특별시 마포구 월드컵북로 396, 지하1층 1071호 (상암동, 누리꿈스퀘어)",,126.8903224924,37.5794413686,14125366.086448237,4520184.157803709,
SFT0059253,한의원,소리앤봄한의원,"서울특별시 마포구 백범로31길 7, B122호 (공덕동, 공덕SK리더스뷰)",,126.94643794537815,37.5861799545778,14131612.830099396,4521130.734260807,
SFT0059739,의원,참길이비인후과의원,서울특별시 마포구 마포대로 44,,126.94710143343694,37.53998480632314,14131686.68925225,4514643.370238754,
SFT0060127,의원,성모드림정신건강의학과의원,"서울특별시 마포구 양화로 72, 효성해링턴타워 101동 201호,202호,203호 (서교동)",,126.916715922466,37.5508021700653,14128304.18964347,4516162.134004386,
SFT0061919,치과의원,동행치과의원,"서울특별시 마포구 백범로 91, 3~4층 (대흥동)",,126.9418028299,37.5482170083,14131096.8514046,4515799.155841817,
SFT0062693,의원,미앤미의원,"서울특별시 마포구 신촌로 92, 5층 (노고산동, 신촌카리스빌딩)",,126.93568155272426,37.55517674584637,14130415.433946393,4516776.389421862,
SFT0063666,의원,닥터훈소아청소년과의원,서울특별시 마포구 망원로8길 67 해오름 104호 (망원동),,126.906059539638,37.5545611544018,14127117.92653336,4516689.949059398,
SFT0063667,의원,제이랑여성의원,"서울특별시 마포구 양화로 61, 3층 (서교동, 두암빌딩)",,126.915070906412,37.5508291995608,14128121.067293992,4516165.9292363385,
SFT0064948,의원,공덕서울안과의원,"서울특별시 마포구 만리재로 14, 3층 (공덕동, 르네상스타워빌딩)",,126.9528365624,37.5439944436,14132325.120888049,4515206.299793643,
SFT0065670,요양병원,에스엠씨요양병원,"서울특별시 마포구 월드컵북로 165, 지하1층~5층 (성산동, SMC)",,126.9098459224,37.5668764042,14127539.424734375,4518419.37244049,
SFT0065898,의원,이재일내과의원,"서울특별시 마포구 만리재로 15, 3층 (공덕동, 제일빌딩)",,126.9527682959,37.5445854719,14132317.521496033,4515289.279260508,
SFT0067091,의원,이내과의원,"서울특별시 마포구 양화로 64, 3층 (서교동, 서교제일빌딩)",,126.9158048087,37.550309669,14128202.764922986,4516092.981797469,
